id,name,type,typecode,biz_type,lon,lat
B0FFFAABII,小街桥,地名地址信息;交通地名;立交桥,190306,[],116.41927560368086,39.94819702717899
B0FFFAA8SX,东直门北桥,地名地址信息;交通地名;立交桥,190306,[],116.42650204145693,39.94762459248177
B000A84612,东土城路,地名地址信息;交通地名;道路名,190301,[],116.42617433072465,39.94867811492658
B0FFGZCDMO,民旺南胡同,地名地址信息;交通地名;道路名,190301,[],116.42187414049212,39.94993176984029
BZDCPW0267,后永康一巷,地名地址信息;交通地名;道路名,190301,[],116.4176129191479,39.94408954642975
BZDCPW024Y,东直门北小街,地名地址信息;交通地名;道路名,190301,[],116.41937227883523,39.94394029436197
BZDCPW028J,民安街,地名地址信息;交通地名;道路名,190301,[],116.422630147928,39.94329690457301
B0FFGQ9OD0,北利民胡同,地名地址信息;交通地名;道路名,190301,[],116.41841687019583,39.9448522953735
BZDCPW02AB,旗杆胡同,地名地址信息;交通地名;道路名,190301,[],116.41966753328285,39.945159551933855
BZDCPW02A2,针线胡同,地名地址信息;交通地名;道路名,190301,[],116.42058908050795,39.94329460445737
B0FFGZCEWK,针线二巷,地名地址信息;交通地名;道路名,190301,[],116.42049082445268,39.94419146287528
B0FFGZCBRI,民安胡同,地名地址信息;交通地名;道路名,190301,[],116.42464246217749,39.94277337003845
B0FFGQAUII,育树四条,地名地址信息;交通地名;道路名,190301,[],116.41720912598306,39.946290079046825
B0FFGQ9X6G,民旺四巷,地名地址信息;交通地名;道路名,190301,[],116.42160462169244,39.95080943003581
B0FFGQ9SX1,咸胡同,地名地址信息;交通地名;道路名,190301,[],116.42303501597101,39.9414704546457
B0FFGQ7WTX,针线一巷,地名地址信息;交通地名;道路名,190301,[],116.42059291663395,39.94462555602476
B0FFGQ7T1A,东扬威胡同,地名地址信息;交通地名;道路名,190301,[],116.42337351341743,39.94179184685237
B0FFGQ5G8I,民旺南胡同,地名地址信息;交通地名;道路名,190301,[],116.42387534189145,39.949504152069075
B0FFGQ4TJ2,育树三条胡同,地名地址信息;交通地名;道路名,190301,[],116.41840362364495,39.94665021136296
B0FFGQ4N31,白衣胡同,地名地址信息;交通地名;道路名,190301,[],116.42283356679887,39.94250617502035
B0FFGQ8S40,育树胡同,地名地址信息;交通地名;道路名,190301,[],116.41804331796016,39.94532891100677
B0FFGQ793V,北官厅胡同,地名地址信息;交通地名;道路名,190301,[],116.42077005439855,39.94556371144773
B0FFGQ6EPQ,后永康北巷,地名地址信息;交通地名;道路名,190301,[],116.41804750886756,39.94387297257978
B0FFGQ5OL1,后永康胡同,地名地址信息;交通地名;道路名,190301,[],116.41722252129982,39.94331920888901
B0FFGQ5RAQ,育树二条,地名地址信息;交通地名;道路名,190301,[],116.41809632303406,39.94583294260957
B0FFH14DUI,民旺社区,地名地址信息;普通地名;村庄级地名,190108,[],116.42080554037601,39.95000757510571
B0FFH167R5,民旺园27号楼A座,地名地址信息;门牌信息;楼栋号,190403,[],116.41965286441781,39.95025133602867
BZDCPW02HE,民旺中巷,地名地址信息;交通地名;道路名,190301,[],116.42285863366781,39.950148903272236
BZDCPW02F8,东扬威街,地名地址信息;交通地名;道路名,190301,[],116.42576647989716,39.941922845045106
BZDCPW02DW,安定门东滨河路,地名地址信息;交通地名;道路名,190301,[],116.42337158594594,39.949057557873196
BZDCPW02EL,安定门东滨河路,地名地址信息;交通地名;道路名,190301,[],116.41940168962044,39.948886129594996
BZDCPW02E9,东直门北顺城街,地名地址信息;交通地名;道路名,190301,[],116.42686513294471,39.94411821919316
B000A9NXCY,东土城路13号院1号楼,地名地址信息;门牌信息;楼栋号,190403,[],116.42582846224673,39.9507695773709
B000A9NWXO,和平新城30号楼,地名地址信息;门牌信息;楼栋号,190403,[],116.41956663621197,39.9511002130031
B0FFGSDX7H,民旺园25号,地名地址信息;门牌信息;楼栋号,190403,[],116.41964598586495,39.9492223693633
B0FFHVG7BH,东二环与北二环交叉口,地名地址信息;交通地名;路口名,190302,[],116.42554630198902,39.948202310697035
B0FFGGLVHC,民安街与针线胡同交叉口,地名地址信息;交通地名;路口名,190302,[],116.42059607777583,39.943395608039275
B0FFGGFJR9,民安胡同与民安街交叉口,地名地址信息;交通地名;路口名,190302,[],116.42412754910913,39.943253708852986
B000A9NO3N,民旺园28号楼,地名地址信息;门牌信息;楼栋号,190403,[],116.42035787045195,39.950183083777524
BZDCPW02E4,S12机场高速入口(东向),地名地址信息;交通地名;高速路入口,190305,[],116.42248029523998,39.94816653744813
B0FFI8L8IQ,育树胡同与青龙胡同交叉口,地名地址信息;交通地名;路口名,190302,[],116.41796902575443,39.94686277853133
B0FFGGU9XZ,东扬威胡同与咸胡同交叉口,地名地址信息;交通地名;路口名,190302,[],116.42303497570913,39.9417864420862
B0FFGGTX7C,针线一巷与针线胡同交叉口,地名地址信息;交通地名;路口名,190302,[],116.42106160185054,39.944618068511026
B0FFGGTTLG,炮局头条与炮局胡同交叉口,地名地址信息;交通地名;路口名,190302,[],116.41766591796886,39.94463257545413
B0FFGGT4BL,后永康胡同与民安街交叉口,地名地址信息;交通地名;路口名,190302,[],116.41930224922784,39.9434152431653
B0FFGGSJOR,炮局头条与育树四条交叉口,地名地址信息;交通地名;路口名,190302,[],116.41721319964618,39.945752104075154
B0FFGGS7DS,育树二条与育树胡同交叉口,地名地址信息;交通地名;路口名,190302,[],116.41803424294329,39.945824882629495
B0FFGGPC1G,旗杆胡同与针线胡同交叉口,地名地址信息;交通地名;路口名,190302,[],116.4207570855381,39.945170712818566
B0FFGGL9MF,育树二条与育树四条交叉口,地名地址信息;交通地名;路口名,190302,[],116.41721319964618,39.945752104075154
B0FFGGIZNT,东直门北桥与北二环交叉口,地名地址信息;交通地名;路口名,190302,[],116.42250432067952,39.948259561785434
B0FFGGH3I2,民旺三巷与民旺中巷交叉口,地名地址信息;交通地名;路口名,190302,[],116.4205961157597,39.95095231022871
B0FFGGFX1V,炮局头条与育树二条交叉口,地名地址信息;交通地名;路口名,190302,[],116.41721319964618,39.945752104075154
B0FFGGEM0I,北马杓胡同与民安街交叉口,地名地址信息;交通地名;路口名,190302,[],116.42593961389105,39.94323002017057
B0FFGGEEWE,东直门北桥与北二环交叉口,地名地址信息;交通地名;路口名,190302,[],116.42442638469302,39.948419876458004
B0FFGGA9M6,针线二巷与针线胡同交叉口,地名地址信息;交通地名;路口名,190302,[],116.42103361525838,39.94418905459899
B0FFGG8IP3,东二环与东二环出口交叉口,地名地址信息;交通地名;路口名,190302,[],116.42719437647129,39.94685655900233
B0FFHVHUO2,东二环与东直门北桥交叉口,地名地址信息;交通地名;路口名,190302,[],116.42628263461354,39.94778229380047
B0FFHVHONC,东二环与北二环入口交叉口,地名地址信息;交通地名;路口名,190302,[],116.42554630198902,39.948202310697035
B0FFHVGI4I,北二环与北二环入口交叉口,地名地址信息;交通地名;路口名,190302,[],116.42554630198902,39.948202310697035
B0FFHVFSRI,北二环与和平里东街交叉口,地名地址信息;交通地名;路口名,190302,[],116.4192355370855,39.948287982574726
B0FFHPK9HC,东二环与东二环入口交叉口,地名地址信息;交通地名;路口名,190302,[],116.4265411111048,39.94762064493206
B000A9PS74,柏林社区,地名地址信息;普通地名;村庄级地名,190108,[],116.41753098250928,39.95061921121871
B0FFG5PF4N,民旺中巷与民旺北胡同交叉口,地名地址信息;交通地名;路口名,190302,[],116.42286853583974,39.95103987993104
B0FFG5KV0E,民旺三巷与民旺南胡同交叉口,地名地址信息;交通地名;路口名,190302,[],116.42063931227324,39.94990039842332
B0FFI8LNM3,东直门北中街与民安街交叉口,地名地址信息;交通地名;路口名,190302,[],116.4225910866962,39.943299858733276
B0FFI8L7KA,东直门北小街与民安街交叉口,地名地址信息;交通地名;路口名,190302,[],116.41938536347585,39.943417328499656
B0FFGGWGV8,民旺三巷与民旺北胡同交叉口,地名地址信息;交通地名;路口名,190302,[],116.4205961157597,39.95095231022871
B0FFGGTL2G,北利民胡同与育树胡同交叉口,地名地址信息;交通地名;路口名,190302,[],116.41804638513602,39.94483293356475
B0FFGGOFSH,民旺中巷与民旺北胡同交叉口,地名地址信息;交通地名;路口名,190302,[],116.4205961157597,39.95095231022871
B0FFGGGZC5,后永康北巷与炮局胡同交叉口,地名地址信息;交通地名;路口名,190302,[],116.41790522535912,39.944644804446085
B0FFGGFU1J,北官厅胡同与针线胡同交叉口,地名地址信息;交通地名;路口名,190302,[],116.4207570855381,39.945170712818566
B0FFGGB666,北官厅胡同与旗杆胡同交叉口,地名地址信息;交通地名;路口名,190302,[],116.4222020206917,39.94694926291472
B0FFGGAHHO,北官厅胡同与旗杆胡同交叉口,地名地址信息;交通地名;路口名,190302,[],116.4207570855381,39.945170712818566
B0FFGG972G,北利民胡同与炮局头条交叉口,地名地址信息;交通地名;路口名,190302,[],116.41766589526779,39.94481056840268
B0FFGQCJC5,北马杓胡同与民安胡同交叉口,地名地址信息;交通地名;路口名,190302,[],116.42584258557672,39.94212793647494
B0FFGQAPYK,西羊管胡同与针线胡同交叉口,地名地址信息;交通地名;路口名,190302,[],116.42051309472049,39.942320560865866
B000A9NNWR,和平里东街民旺25号楼,地名地址信息;门牌信息;楼栋号,190403,[],116.41942969571738,39.949142148386706
B0FFLKYI0E,北二环与安定门东大街交叉口,地名地址信息;交通地名;路口名,190302,[],116.41916143584328,39.94828590697496
B0FFLKWIPC,民旺中巷与民旺南胡同交叉口,地名地址信息;交通地名;路口名,190302,[],116.42283063116875,39.94982288303396
B0FFI8OY7Y,东直门北小街与炮局胡同交叉口,地名地址信息;交通地名;路口名,190302,[],116.41935315672248,39.94469224499084
B0FFI8OGEC,和平里东街与民旺南胡同交叉口,地名地址信息;交通地名;路口名,190302,[],116.41910715740829,39.94988978854634
B0FFI8LZW2,东直门北小街与青龙胡同交叉口,地名地址信息;交通地名;路口名,190302,[],116.41914859479171,39.946899948495975
B0FFI8L8OK,东土城路与东直门北大街交叉口,地名地址信息;交通地名;路口名,190302,[],116.42603912625039,39.94842794618252
B0FFGG9L2Y,东直门北小街与育树二条交叉口,地名地址信息;交通地名;路口名,190302,[],116.41924385424913,39.945887085718816
B0FFI8HSFF,东直门北小街与针线胡同交叉口,地名地址信息;交通地名;路口名,190302,[],116.41940952351155,39.942422392741165
B0FFI8HJ4P,东直门北小街与针线二巷交叉口,地名地址信息;交通地名;路口名,190302,[],116.41936423578538,39.944191276170955
B0FFI8HGP6,育树三条胡同与青龙胡同交叉口,地名地址信息;交通地名;路口名,190302,[],116.41838756709056,39.946927184612484
B0FFI8H1SM,东直门北小街与旗杆胡同交叉口,地名地址信息;交通地名;路口名,190302,[],116.41934308376197,39.94515621631912
B0FFI8GJXM,东土城路与安定门东大街交叉口,地名地址信息;交通地名;路口名,190302,[],116.42603912625039,39.94842794618252
B0FFGGWLP5,东玉门北顺城街与民安街交叉口,地名地址信息;交通地名;路口名,190302,[],116.42690331526165,39.943221306308686
B0FFGGNSSH,东直门北中街与白衣胡同交叉口,地名地址信息;交通地名;路口名,190302,[],116.42256514748186,39.942504859842785
B0FFGGLB1X,东扬威胡同与东羊管胡同交叉口,地名地址信息;交通地名;路口名,190302,[],116.4237110558895,39.94179625540017
B0FFGGKFXS,后永康北巷与后永康胡同交叉口,地名地址信息;交通地名;路口名,190302,[],116.41829390379766,39.94331123525583
B0FFGGK073,安定门东大街与旗杆胡同交叉口,地名地址信息;交通地名;路口名,190302,[],116.42218985132543,39.948133202252436
B0FFHVFVG7,东二环出口与东直门北桥交叉口,地名地址信息;交通地名;路口名,190302,[],116.42716233759155,39.9467075210975
B0FFHPOCWG,东直门北桥与北二环入口交叉口,地名地址信息;交通地名;路口名,190302,[],116.42691976418169,39.9477881485206
B0FFHPG7D8,育树三条胡同与育树二条交叉口,地名地址信息;交通地名;路口名,190302,[],116.4184668079885,39.94586130488316
B0FFI8OQZ2,东直门北小街与北官厅胡同交叉口,地名地址信息;交通地名;路口名,190302,[],116.41933197589164,39.945883176220086
B0FFI8HSVX,东直门北小街与北官厅胡同交叉口,地名地址信息;交通地名;路口名,190302,[],116.41932583959553,39.94688713032721
B0FFGGVAGU,东直门北小街与北利民胡同交叉口,地名地址信息;交通地名;路口名,190302,[],116.41926200547994,39.94489514344777
B0FFGGR538,东直门北小街与后永康胡同交叉口,地名地址信息;交通地名;路口名,190302,[],116.41930224922784,39.9434152431653
B0FFGGPSBM,东直门北小街与北新桥三条交叉口,地名地址信息;交通地名;路口名,190302,[],116.41933949426685,39.941893341621586
B0FFGGAYN7,东直门北桥与安定门东大街交叉口,地名地址信息;交通地名;路口名,190302,[],116.42194747977571,39.9481419239052
B0FFHVG4YT,东直门北小街与和平里东街交叉口,地名地址信息;交通地名;路口名,190302,[],116.41927361814497,39.94806203046195
B0FFHVG0L0,和平里东街与安定门东大街交叉口,地名地址信息;交通地名;路口名,190302,[],116.41927361814497,39.94806203046195
B0FFHPOCJ1,东二环出口与安定门东大街交叉口,地名地址信息;交通地名;路口名,190302,[],116.42719148374125,39.94597158991558
B0FFHPLJW3,东二环入口与安定门东大街交叉口,地名地址信息;交通地名;路口名,190302,[],116.42604121381376,39.94776797491112
B0FFHPKCCB,东二环出口与东直门北大街交叉口,地名地址信息;交通地名;路口名,190302,[],116.42719148374125,39.94597158991558
B0FFHPJ3FT,东直门北大街与北二环入口交叉口,地名地址信息;交通地名;路口名,190302,[],116.42714117702083,39.94767045429027
B000A9NNGJ,民旺园19号院4号楼,地名地址信息;门牌信息;楼栋号,190403,[],116.42395641035249,39.95000423187098
B000A9NXD0,东土城路13号院3号楼,地名地址信息;门牌信息;楼栋号,190403,[],116.4256702786422,39.950063398603206
B000A9NXGR,民安小区18号楼,地名地址信息;门牌信息;楼栋号,190403,[],116.42340047935616,39.942398855302805
B000A9QF59,民旺园20号楼,地名地址信息;门牌信息;楼栋号,190403,[],116.4224541243524,39.94919046667045
B0FFI8GPYD,东直门北大街与安定门东大街交叉口,地名地址信息;交通地名;路口名,190302,[],116.42603912625039,39.94842794618252
B0FFHVGGGR,东直门北小街与安定门东大街交叉口,地名地址信息;交通地名;路口名,190302,[],116.41916747288235,39.94805992203308
B0FFHPI5M7,东直门北大街与安定门东大街交叉口,地名地址信息;交通地名;路口名,190302,[],116.42719148374125,39.94597158991558
B0FFG4L2HL,北新桥三条1号1号楼,地名地址信息;门牌信息;楼栋号,190403,[],116.41862149965729,39.94204960904732
B000A9QH6K,民旺园21号楼,地名地址信息;门牌信息;楼栋号,190403,[],116.42158780545043,39.949167475694026
B000A9NOKR,民旺园14号楼,地名地址信息;门牌信息;楼栋号,190403,[],116.42263629488815,39.95007564456965
B0FFFOV9I0,北官厅10号,地名地址信息;门牌信息;道路门牌,190402,[],116.42156903872355,39.94711353545302
B000A9NNHN,民旺园8号楼,地名地址信息;门牌信息;楼栋号,190403,[],116.42083055218,39.95020159479608
B0FFFYIQO8,东扬威街小区5号楼-3单元,地名地址信息;地名地址信息;地名地址信息,190000,[],116.42506125960156,39.94203492996312
B0FFG4KZWC,华冠丽景嘉园6号楼,地名地址信息;门牌信息;楼栋号,190403,[],116.42043981771445,39.943667428647515
B0FFF51GUK,民旺园23号楼,地名地址信息;门牌信息;楼栋号,190403,[],116.42005749389581,39.94977677965404
B0FFLL9PPJ,民安东巷与民安街交叉口,地名地址信息;交通地名;路口名,190302,[],116.425683168984,39.943236684407296
B0FFF51GIY,和平新城27号楼,地名地址信息;门牌信息;楼栋号,190403,[],116.41965287308976,39.950183338713295
B0FFG4LQQH,民安小区12号楼,地名地址信息;门牌信息;楼栋号,190403,[],116.42420771042136,39.943020817285685
B000A8ZGUA,砖角楼南里3号楼,地名地址信息;门牌信息;楼栋号,190403,[],116.42508916107178,39.95104361049496
B000A9UV7Z,柏林寺西4号楼,地名地址信息;门牌信息;楼栋号,190403,[],116.41878263467771,39.95053943516231
B0FFLL9KYT,针线一巷与针线二巷交叉口,地名地址信息;交通地名;路口名,190302,[],116.41987294399574,39.94419480498444
B0FFILDWYC,北官厅2号院4号楼,地名地址信息;门牌信息;楼栋号,190403,[],116.42110546360901,39.946212054042746
B0FFG4VYBK,北官厅胡同4号楼,地名地址信息;门牌信息;楼栋号,190403,[],116.42192652592449,39.947528924133785
B0FFHFKLYG,北官厅胡同2号楼,地名地址信息;门牌信息;楼栋号,190403,[],116.42042452878243,39.94576432941148
B0FFG4LQPR,东直门北中街20号楼,地名地址信息;门牌信息;楼栋号,190403,[],116.4228457022593,39.941591225557296
B0FFG4VTIS,华冠丽景嘉园5号楼,地名地址信息;门牌信息;楼栋号,190403,[],116.42070314685141,39.94407269745716
B0FFG4VQ60,北官厅二号院3号楼,地名地址信息;门牌信息;楼栋号,190403,[],116.42159624363272,39.94582461689333
B0FFG4VKOU,北新桥三条1号院3号楼,地名地址信息;门牌信息;楼栋号,190403,[],116.41867552781444,39.94239664917729
B0FFG4VK5P,北新桥三条甲20号楼,地名地址信息;门牌信息;楼栋号,190403,[],116.41718266743051,39.94177823269595
B0FFG4VIFK,北新桥三条1号院2号楼,地名地址信息;门牌信息;楼栋号,190403,[],116.41811177257031,39.9424620908413
B0FFG4VCFC,民安街8号楼,地名地址信息;门牌信息;楼栋号,190403,[],116.4250822593943,39.942315945655224
B0FFG4V33T,东扬威街7号楼,地名地址信息;门牌信息;楼栋号,190403,[],116.42558620174717,39.94166562041162
B0FFG4V1AI,后永康胡同4号院3号楼,地名地址信息;门牌信息;楼栋号,190403,[],116.41753995254027,39.94309451647756
B0FFG4V01C,东扬威街5号楼,地名地址信息;门牌信息;楼栋号,190403,[],116.4251043377098,39.94199398659984
B0FFG4LR53,东直门北小街22号楼,地名地址信息;门牌信息;楼栋号,190403,[],116.41973003412849,39.94191174553104
B0FFG4LQV5,华冠丽景嘉园12号楼,地名地址信息;门牌信息;楼栋号,190403,[],116.41962549809205,39.94497551543863
B0FFG4LQS5,东直门北小街24号楼,地名地址信息;门牌信息;楼栋号,190403,[],116.42030285773798,39.94180935521401
B0FFG4LP5D,东直门北小街14号楼,地名地址信息;门牌信息;楼栋号,190403,[],116.41969668960431,39.9442516181831
B0FFG4LOY6,北官厅胡同3号楼,地名地址信息;门牌信息;楼栋号,190403,[],116.42067395833358,39.94522062041174
B0FFG4LON7,北官厅甲二号院1号楼,地名地址信息;门牌信息;楼栋号,190403,[],116.4216403654577,39.94538868383229
B0FFF83R44,华冠丽景嘉园2号楼,地名地址信息;门牌信息;楼栋号,190403,[],116.41972174729594,39.94407365136858
B0FFG4LI3I,华冠丽景嘉园1号楼,地名地址信息;门牌信息;楼栋号,190403,[],116.41968162552885,39.94458958912413
B0FFG4LGWB,东扬威街小区3号楼,地名地址信息;门牌信息;楼栋号,190403,[],116.42560512711934,39.94250861164488
B0FFG4LDXT,东扬威街小区1号楼,地名地址信息;门牌信息;楼栋号,190403,[],116.42565615088914,39.94301265807702
B0FFG4LDMK,北新桥三条1号院6号楼,地名地址信息;门牌信息;楼栋号,190403,[],116.41803159928496,39.942999991663505
B0FFG4LCKZ,东直门北小街18号楼,地名地址信息;门牌信息;楼栋号,190403,[],116.41969771599231,39.944055626996715
B0FFG4LBU3,民安小区14号楼,地名地址信息;门牌信息;楼栋号,190403,[],116.42413562620827,39.94275173868215
B0FFG4L6LJ,北新桥三条1号院4号楼,地名地址信息;门牌信息;楼栋号,190403,[],116.41806768064956,39.94273103732453
B0FFG4L2Y7,北新桥三条1号院7号楼,地名地址信息;门牌信息;楼栋号,190403,[],116.4186243838209,39.942989574719945
B0FFG4L2IY,北新桥三条1号院5号楼,地名地址信息;门牌信息;楼栋号,190403,[],116.4186354391049,39.94267159831348
B0FFG4L0O0,砖角楼南里12号楼,地名地址信息;门牌信息;楼栋号,190403,[],116.42350370002346,39.94982568703243
B0FFFCR3OI,华冠丽景嘉园斗4号楼,地名地址信息;门牌信息;楼栋号,190403,[],116.42072712990715,39.944479707473064
B0FFFCQHJ0,民旺园29号楼,地名地址信息;门牌信息;楼栋号,190403,[],116.42029567861333,39.950989985430894
B0FFFCMKCN,民旺园12号楼,地名地址信息;门牌信息;楼栋号,190403,[],116.42222662308855,39.95037015661996
B0FFFD07PS,东雍创业谷E座,地名地址信息;门牌信息;楼栋号,190403,[],116.41734259280106,39.943948296478844
B0FFFYIQFK,东直门北小街16号院2号楼-3单元,地名地址信息;地名地址信息;地名地址信息,190000,[],116.41971977662284,39.94382165926772
B0FFFYINR6,东直门北小街16号院1号楼-1单元,地名地址信息;地名地址信息;地名地址信息,190000,[],116.41977679764004,39.94428370062817
B0FFFWVN58,民安小区16号楼,地名地址信息;门牌信息;楼栋号,190403,[],116.42353761596975,39.94305499497777
B0FFGRJ0ZX,和平里东街15号院3号楼,地名地址信息;门牌信息;楼栋号,190403,[],116.41841121975642,39.949900090836785
B0FFGRJ0ON,和平里东街15号院2号楼,地名地址信息;门牌信息;楼栋号,190403,[],116.41824703899287,39.94961594063557
B0FFGRJ0MB,和平里东街15号院1号楼,地名地址信息;门牌信息;楼栋号,190403,[],116.41874572091326,39.949472440160434
B000A9UV6K,和平里东街9号院1号楼,地名地址信息;门牌信息;楼栋号,190403,[],116.41870445696524,39.95110933446234
B0FFLL89NH,后永康一巷与炮局胡同交叉口,地名地址信息;交通地名;路口名,190302,[],116.41740058148369,39.944614324705434
B000A9O0UK,柏林寺西5号楼,地名地址信息;门牌信息;楼栋号,190403,[],116.41849923068756,39.95073214509658
B0FFHGGA9K,东土城路乙14号楼,地名地址信息;门牌信息;楼栋号,190403,[],116.42665899320164,39.9501927019204
B000A9NNHG,民旺园18号楼,地名地址信息;门牌信息;楼栋号,190403,[],116.4207123040196,39.950797442416984
B0FFF8NLBZ,后永康胡同17号院1号楼,地名地址信息;门牌信息;楼栋号,190403,[],116.41751488169268,39.94339948066209
B0FFI7QFIP,青龙胡同1,地名地址信息;门牌信息;门牌信息,190400,[],116.41891125398062,39.94704070230953
B0FFLL6A5C,后永康一巷与后永康胡同交叉口,地名地址信息;交通地名;路口名,190302,[],116.4177281656276,39.94331668690643
B0FFIVNMQQ,东土城路与安定门东滨河交叉口,地名地址信息;交通地名;路口名,190302,[],116.42639967034597,39.949121396860406
B0FFF83CPI,砖角楼南里4号楼,地名地址信息;门牌信息;楼栋号,190403,[],116.42404565348696,39.94923937179155
B0FFF51J8J,东直门内北小街16号院3号楼,地名地址信息;门牌信息;楼栋号,190403,[],116.42042663964268,39.944917365103805
B000A9O416,砖角楼南里6号楼,地名地址信息;门牌信息;楼栋号,190403,[],116.42424072255919,39.951213535415974
B000A9NNX5,民旺园13号楼,地名地址信息;门牌信息;楼栋号,190403,[],116.4223117023762,39.95077623897815
BZDCPW02FU,北二环入口(二环路方向),地名地址信息;交通地名;城市快速路入口,190309,[],116.4259339780292,39.9481538186216
B0FFLL7WRA,东直门北大街与东直门北桥交叉口,地名地址信息;交通地名;路口名,190302,[],116.4263596863522,39.948441370337896
B0FFLL5R1Z,和平里东街与安定门东滨河交叉口,地名地址信息;交通地名;路口名,190302,[],116.41915735295562,39.94889287890929
B0FFIVNDUD,安定门东滨河与民旺南胡同交叉口,地名地址信息;交通地名;路口名,190302,[],116.42389342603066,39.949074191151354
B0FFG4VWEU,东直门内北小街8号院1号楼,地名地址信息;门牌信息;楼栋号,190403,[],116.41967435193905,39.946658499910065
B0G0XBWYXR,东直门北小街16号院1号楼,地名地址信息;门牌信息;楼栋号,190403,[],116.41959554308525,39.94429451119432
B0G2PYGKSI,东直门北中街18号楼,地名地址信息;门牌信息;楼栋号,190403,[],116.42286864862638,39.942296224757065
B0G2BY785J,东羊管胡同5号楼,地名地址信息;门牌信息;楼栋号,190403,[],116.42373712899655,39.94155329679495
B0G2BU9BIH,民安街16号楼,地名地址信息;门牌信息;楼栋号,190403,[],116.42340841395679,39.94301284058236
B0FFG4LOQD,东直门内北小街8号院2号楼,地名地址信息;门牌信息;楼栋号,190403,[],116.41957126332063,39.94622640973653
B0FFKW67EI,砖角楼南里13号楼,地名地址信息;门牌信息;楼栋号,190403,[],116.42416877724288,39.94985349972345
B0FFG4LGHZ,东直门内北小街8号院3号楼,地名地址信息;门牌信息;楼栋号,190403,[],116.42018711786922,39.946323053348415
B0FFG4L2BX,东直门内北小街8号院4号楼,地名地址信息;门牌信息;楼栋号,190403,[],116.42068586372206,39.9460995986695
B0FFK2UA8Y,后永康胡同4号院1号楼,地名地址信息;门牌信息;楼栋号,190403,[],116.41748583600082,39.943467450489095
B0FFJ97CY1,东直门北小街,地名地址信息;门牌信息;楼栋号,190403,[],116.41911790916599,39.94410202765988
B0FFG4LS4R,和平里东街民旺园19号楼,地名地址信息;门牌信息;楼栋号,190403,[],116.42339556795363,39.94950056931723
B0FFFD0S03,东直门内北小街16号院2号楼,地名地址信息;门牌信息;楼栋号,190403,[],116.4196046455133,39.943589548507724
B000A9NXF2,东土城路13号院2号楼,地名地址信息;门牌信息;楼栋号,190403,[],116.42555198260656,39.95079021626867
B000A8ZI2Y,民旺园26号楼,地名地址信息;门牌信息;楼栋号,190403,[],116.41963790391821,39.94977733910736
B0G0GRKEH6,北官厅胡同甲2号院3号楼,地名地址信息;门牌信息;楼栋号,190403,[],116.42103446504144,39.94537900855861
B000A9NO3S,民旺园9号楼,地名地址信息;门牌信息;楼栋号,190403,[],116.42331620859488,39.95132740201029
B000A9NNWV,民旺园24号楼,地名地址信息;门牌信息;楼栋号,190403,[],116.42226358115838,39.951146168775466
B000A9NWS1,民旺园19号院3号楼,地名地址信息;门牌信息;楼栋号,190403,[],116.42412860900353,39.95065741841613
B000A9NWQ7,民旺园19号院2号楼,地名地址信息;门牌信息;楼栋号,190403,[],116.42342548391599,39.95053756458222
B000A9NRN5,民旺园19号院1号楼,地名地址信息;门牌信息;楼栋号,190403,[],116.42349154523588,39.950888630532376
B000A9O3WD,砖角楼南里2号楼,地名地址信息;门牌信息;楼栋号,190403,[],116.42588849921312,39.95129763528018
B0FFFYIQDA,民安街16号楼-10单元,地名地址信息;门牌信息;门牌信息,190400,[],116.42317708173051,39.94272357439898
B0FFFYDF32,东直门北中街1号楼,地名地址信息;门牌信息;楼栋号,190403,[],116.42197515529183,39.94316515184581
B000A9NZ3B,柏林寺西8号楼,地名地址信息;门牌信息;楼栋号,190403,[],116.4178494860305,39.94988154433179
B0FFH3PRES,东二环入口(东南向),地名地址信息;交通地名;城市快速路入口,190309,[],116.42628565314011,39.94767830190434
B000A9O073,柏林寺9号楼,地名地址信息;门牌信息;楼栋号,190403,[],116.41771341256029,39.949079445449016
B0FFFYIPVQ,东扬威街小区5号楼-1单元,地名地址信息;门牌信息;门牌信息,190400,[],116.42494807019739,39.94202178630371
B0FFFYIBA7,北官厅二号院2号楼-1单元,地名地址信息;门牌信息;门牌信息,190400,[],116.42187461443316,39.94621391679464
B000A9NZ37,柏林寺西6号楼,地名地址信息;门牌信息;楼栋号,190403,[],116.41782535607533,39.950656490638465
B0FFFYIQD2,东直门北小街24号楼-十单元,地名地址信息;门牌信息;楼栋号,190403,[],116.42012357206924,39.94204515477571
B0FFFYIPX9,北官厅甲二号院2号楼-4单元,地名地址信息;门牌信息;门牌信息,190400,[],116.42104147471956,39.94538401608602
B000A9NPED,民旺园17号楼,地名地址信息;门牌信息;楼栋号,190403,[],116.42071734878711,39.95050345946989
B0FFFYIQU8,东直门北小街16号院2号楼-5单元,地名地址信息;门牌信息;门牌信息,190400,[],116.41970376327404,39.94375064535793
B0FFFAA5ZU,香河园桥,地名地址信息;交通地名;立交桥,190306,[],116.43587285089582,39.94809693102775
B0FFGQ6CAK,香河园北街,地名地址信息;交通地名;道路名,190301,[],116.43181710107794,39.9483152674672
B0FFGQA9YA,香河园北街,地名地址信息;交通地名;道路名,190301,[],116.43409889871432,39.94837492822701
B0FFGQ9MVR,香河园中街,地名地址信息;交通地名;道路名,190301,[],116.42928011450883,39.947985457241295
BZDCPW028H,香河园西街,地名地址信息;交通地名;道路名,190301,[],116.4282671290139,39.94854898309115
B000ABCRBZ,北二里庄,地名地址信息;普通地名;村庄级地名,190108,[],116.43652500655277,39.94276127233378
BZDCPW023L,香河园西街,地名地址信息;交通地名;道路名,190301,[],116.42815705025912,39.947557866898975
BZDCPW024O,左家庄西街,地名地址信息;交通地名;道路名,190301,[],116.43543196371289,39.947301207113334
BZDCPW028M,东直门外小街,地名地址信息;交通地名;道路名,190301,[],116.43714351753938,39.94205938813012
B0FFGZCD9E,香河园中街,地名地址信息;交通地名;道路名,190301,[],116.43330629534002,39.94762066166284
B0FFGZCE60,东外小街,地名地址信息;交通地名;道路名,190301,[],116.434354232554,39.94222859339235
B0FFGQAG3A,S12机场高速,地名地址信息;交通地名;道路名,190301,[],116.4332490918424,39.948267543643226
B0FFGQ5GUL,北二里庄路,地名地址信息;交通地名;道路名,190301,[],116.43569909428419,39.94309782941574
B0FFGQ534Y,香河园南街,地名地址信息;交通地名;道路名,190301,[],116.43221352837935,39.94349807853009
B0FFGQ6B23,香河园路,地名地址信息;交通地名;道路名,190301,[],116.4325249349854,39.94538749651809
B0FFGQ53O0,东直门北大街,地名地址信息;交通地名;道路名,190301,[],116.42722472872366,39.94451669275544
BZDCPW02HS,三元宾馆东侧路,地名地址信息;交通地名;道路名,190301,[],116.43401028867392,39.94379196256306
BZDCPW02HY,东直门外斜街,地名地址信息;交通地名;道路名,190301,[],116.4328109266309,39.942286074695645
B0FFF73VHL,东直门外斜街8号院,地名地址信息;门牌信息;道路门牌,190402,[],116.43674520551043,39.94516856304224
B0FFIQGVXU,东湖别墅D座,地名地址信息;门牌信息;楼栋号,190403,[],116.43577844206759,39.94176001845746
B0FFK5J9EP,左家庄12号院3号楼,地名地址信息;地名地址信息;地名地址信息,190000,[],116.43657605047132,39.95122202857355
B0FFKAYNSB,左家庄12号院96号楼,地名地址信息;地名地址信息;地名地址信息,190000,[],116.43494048985458,39.95032625537622
B0FFKX47UI,使馆壹号院4号楼,地名地址信息;地名地址信息;地名地址信息,190000,[],116.4294769158346,39.944653875542
B000A9O0ZQ,察慈小区8号楼,地名地址信息;门牌信息;楼栋号,190403,[],116.43383615594716,39.94188075173701
B0FFKO56DO,小关惠新南里5号院4号楼,地名地址信息;地名地址信息;地名地址信息,190000,[],116.41472526879403,39.97689668679212
B000A9DQ1C,柳芳南里社区4号楼,地名地址信息;门牌信息;楼栋号,190403,[],116.43318957695492,39.951330327102035
B000A9NR4B,胡家园28号楼,地名地址信息;门牌信息;楼栋号,190403,[],116.43522104412123,39.94296701934386
B000A9UV9B,东直门外斜街12号楼,地名地址信息;门牌信息;楼栋号,190403,[],116.4342459252426,39.94279539128263
B000A9O05K,香河园北里社区5号楼,地名地址信息;门牌信息;楼栋号,190403,[],116.42954533364173,39.950274754440215
B0FFGG9WM7,东二环与东直门北桥交叉口,地名地址信息;交通地名;路口名,190302,[],116.4274222460575,39.94326301333455
B0FFHPFMWV,东二环与东二环出口交叉口,地名地址信息;交通地名;路口名,190302,[],116.42757349258609,39.94349121300912
B0FFI8K6EB,左家庄西街与香河园路交叉口,地名地址信息;交通地名;路口名,190302,[],116.43491579084555,39.94752432391559
B0FFGGX2K7,香河园中街与香河园路交叉口,地名地址信息;交通地名;路口名,190302,[],116.43428247167446,39.94699628626601
B0FFGGLHYA,香河园南街与香河园路交叉口,地名地址信息;交通地名;路口名,190302,[],116.43122951953585,39.94348954855988
B0FFHPFMOZ,东直门北大街与民安街交叉口,地名地址信息;交通地名;路口名,190302,[],116.42722890085132,39.94322174959428
B000A9O1PK,察慈小区13号楼,地名地址信息;门牌信息;楼栋号,190403,[],116.43381114417741,39.94154972380274
B0FFGGR8IY,东直门北大街与香河园路交叉口,地名地址信息;交通地名;路口名,190302,[],116.42778888830891,39.94348151225804
B000A9NWKZ,东直门北大街6号楼,地名地址信息;门牌信息;楼栋号,190403,[],116.42857425383873,39.944218589387106
B0FFLKZ6PB,东直门北桥与S12机场高速交叉口,地名地址信息;交通地名;路口名,190302,[],116.42804077640454,39.948016685462875
B0FFGQ9OC7,香河园路与S12机场高速交叉口,地名地址信息;交通地名;路口名,190302,[],116.43594599125532,39.9482900494589
B0FFI8HC7O,东直门外斜街与香河园南街交叉口,地名地址信息;交通地名;路口名,190302,[],116.43351027452088,39.94332616206858
B0FFI8GUCT,东直门外斜街与北二里庄路交叉口,地名地址信息;交通地名;路口名,190302,[],116.43447228952162,39.94380772745945
B0FFGGSUC0,三元宾馆东侧路与香河园路交叉口,地名地址信息;交通地名;路口名,190302,[],116.43228649012674,39.94498913474841
B0FFGGLZLZ,东直门外小街与北二里庄路交叉口,地名地址信息;交通地名;路口名,190302,[],116.4370102148378,39.94201715403965
B0FFGGKION,东直门北大街与香河园西街交叉口,地名地址信息;交通地名;路口名,190302,[],116.42792972985096,39.94676857909897
B0FFHPNU7A,东直门北大街与东直门北桥交叉口,地名地址信息;交通地名;路口名,190302,[],116.42721185518357,39.94333872165325
B0FFHPIGIG,东二环出口与东直门北大街交叉口,地名地址信息;交通地名;路口名,190302,[],116.42780885345191,39.94404451782833
B0FFLKYCJK,东直门北大街与东直门北桥交叉口,地名地址信息;交通地名;路口名,190302,[],116.42736861127707,39.94749077284765
B0FFI8K9NM,东直门北桥与香河园北街交叉口,地名地址信息;交通地名;路口名,190302,[],116.4288552668272,39.94828783116142
B0FFHPI84Y,左家庄西街与香河园北街交叉口,地名地址信息;交通地名;路口名,190302,[],116.43413297233386,39.94837598447428
B0FFHPI40O,香河园中街与香河园北街交叉口,地名地址信息;交通地名;路口名,190302,[],116.42884628705669,39.947994829790154
B0FFHPFW8D,西坝河南路与香河园北街交叉口,地名地址信息;交通地名;路口名,190302,[],116.42982412050453,39.948332241011165
B0FFGGTAX9,香河园中街与香河园西街交叉口,地名地址信息;交通地名;路口名,190302,[],116.42828924061452,39.94799503612327
B0FFGGOT6U,东直门北桥与香河园西街交叉口,地名地址信息;交通地名;路口名,190302,[],116.42828417462115,39.9484400114558
B0FFGGK4FD,西坝河南路与香河园西街交叉口,地名地址信息;交通地名;路口名,190302,[],116.42826311798541,39.94857697632594
B0FFI8I6AV,香河园西街与S12机场高速交叉口,地名地址信息;交通地名;路口名,190302,[],116.42828823454585,39.948028033403055
B0FFHPKVAZ,香河园北街与S12机场高速交叉口,地名地址信息;交通地名;路口名,190302,[],116.42884427817135,39.94803482533078
B0FFGQ99PJ,左家庄西街与S12机场高速交叉口,地名地址信息;交通地名;路口名,190302,[],116.43419111086051,39.948277084513904
B0FFGGFTG1,东直门北桥与S12机场高速交叉口,地名地址信息;交通地名;路口名,190302,[],116.42928308780711,39.948240451532875
B0FFI8M5I2,左家庄西街与新源西里东街交叉口,地名地址信息;交通地名;路口名,190302,[],116.43688338080952,39.94629076181666
B0FFI8L97P,东直门外斜街与左家庄西街交叉口,地名地址信息;交通地名;路口名,190302,[],116.43688338080952,39.94629076181666
B0FFI8HGVO,三元宾馆东侧路与东直门外斜街交叉口,地名地址信息;交通地名;路口名,190302,[],116.43402933169688,39.94377699453879
B0FFI8GZWS,东直门外斜街与新源西里东街交叉口,地名地址信息;交通地名;路口名,190302,[],116.43688338080952,39.94629076181666
B0FFFX7YYT,清水苑社区-6号院,地名地址信息;门牌信息;楼栋号,190403,[],116.42885751160506,39.94639490890731
B0FFG4VH1L,当代MOMAT3号楼,地名地址信息;门牌信息;楼栋号,190403,[],116.43151239196015,39.94900476717254
B0FFF51CQI,西香河园乙5号院3号楼,地名地址信息;门牌信息;楼栋号,190403,[],116.42872365208807,39.943297839103145
B000A9DQ0Z,和平里砖角楼南里7号楼,地名地址信息;门牌信息;楼栋号,190403,[],116.42737935760971,39.949639703068236
B0FFF51GB1,万国城6号楼,地名地址信息;门牌信息;楼栋号,190403,[],116.43116108362182,39.94583635104519
B0FFF51GAZ,香河园街1号院2号楼,地名地址信息;门牌信息;楼栋号,190403,[],116.4325539107221,39.94605451626584
B0FFF51GAW,万国城1号楼,地名地址信息;门牌信息;楼栋号,190403,[],116.43204389543243,39.9457267240089
B000A9NR37,胡家园社区西区9号楼,地名地址信息;门牌信息;楼栋号,190403,[],116.43679857675022,39.94320673416832
B0FFG4V176,胡家园26号院2号楼,地名地址信息;门牌信息;楼栋号,190403,[],116.43672255054801,39.94203664685747
B0FFHXCZT3,东直门北大街4号楼,地名地址信息;门牌信息;楼栋号,190403,[],116.428540926722,39.94630045983005
B0FFHQJSPT,万国城10号楼,地名地址信息;门牌信息;楼栋号,190403,[],116.43204965657176,39.94770165528823
B0FFH12IVW,香河园街甲3号楼,地名地址信息;门牌信息;楼栋号,190403,[],116.43174937323697,39.945080289341284
B0FFGSDYVJ,香河园北里4号楼,地名地址信息;门牌信息;楼栋号,190403,[],116.42949920592953,39.9505796748977
B0FFGSDX5C,香河园路1号院5号楼,地名地址信息;门牌信息;楼栋号,190403,[],116.43147968588535,39.946166828287524
B0FFGSDOT5,万国城MOMA3号楼,地名地址信息;门牌信息;楼栋号,190403,[],116.43322325586679,39.946543569711594
B0FFGYMOS1,当代MOMA艺术区B座,地名地址信息;门牌信息;楼栋号,190403,[],116.43273475297927,39.95027463830261
B0FFGYOUVR,清水苑社区1号楼,地名地址信息;门牌信息;楼栋号,190403,[],116.43035535467192,39.946806091611535
B000A9ECAN,胡家园25号楼,地名地址信息;门牌信息;楼栋号,190403,[],116.43617021624758,39.942627660205005
B000A9DQ2M,香河园北里社区2号楼,地名地址信息;门牌信息;楼栋号,190403,[],116.43131377785465,39.950670395322724
B0FFG4VYU3,当代MOMAT4号楼,地名地址信息;门牌信息;楼栋号,190403,[],116.43202240622331,39.949231552390025
B0FFG4VYGE,胡家园26号院4号楼,地名地址信息;门牌信息;楼栋号,190403,[],116.43574430821762,39.94221094201842
B0FFG4VWRS,万国城MOMA8号楼,地名地址信息;门牌信息;楼栋号,190403,[],116.43085025692147,39.94743681373849
B0FFG4VWAL,当代MOMAT8号楼,地名地址信息;门牌信息;楼栋号,190403,[],116.43210750511578,39.94983366226153
B0FFG4VMJK,万国城MOMA9号楼,地名地址信息;门牌信息;楼栋号,190403,[],116.43145945945801,39.94762673956453
B0FFG4VJTA,当代MOMAT7号楼,地名地址信息;门牌信息;楼栋号,190403,[],116.43281699458838,39.94972979114189
B0FFG4VJC7,东直门北大街10号楼,地名地址信息;门牌信息;楼栋号,190403,[],116.42830286616454,39.943272241562
B0FFG4VGKK,当代MOMAT10号楼,地名地址信息;门牌信息;楼栋号,190403,[],116.43073477943925,39.94938256200917
B0FFG4VDTD,当代MOMAT9号楼,地名地址信息;门牌信息;楼栋号,190403,[],116.43130988949562,39.94972942632002
B0FFG4V9EZ,香河园路1号院7号楼,地名地址信息;门牌信息;楼栋号,190403,[],116.4311429214771,39.946825284272805
B0FFG4UPF6,当代MOMAT6号楼,地名地址信息;门牌信息;楼栋号,190403,[],116.43240617276669,39.949445148538274
B000A9ECAS,胡家园26号院3号楼,地名地址信息;门牌信息;楼栋号,190403,[],116.43614325950746,39.94180464601891
B0FFG4LR7H,香河园社区23号楼,地名地址信息;门牌信息;楼栋号,190403,[],116.4290714687769,39.94205938839796
B0FFG4LQPS,东直门北大街8号楼,地名地址信息;门牌信息;楼栋号,190403,[],116.42876066070195,39.943779873065324
B0FFG4LP5E,察慈小区3号楼,地名地址信息;门牌信息;楼栋号,190403,[],116.43451268096548,39.94141688924453
B0FFG4LP30,东直门北大街12号楼,地名地址信息;门牌信息;楼栋号,190403,[],116.4285103853979,39.94223957663789
B0FFG4LP2E,胡家园26号院1号楼,地名地址信息;门牌信息;楼栋号,190403,[],116.43605401255685,39.94215947755601
B0FFF9EJB5,当代MOMA-3号楼,地名地址信息;门牌信息;楼栋号,190403,[],116.43145730334449,39.94882168922994
B0FFF8MZZV,胡家园14号楼,地名地址信息;门牌信息;楼栋号,190403,[],116.43605788362545,39.94324544135689
B0FFG4L0X9,察慈小区16号楼,地名地址信息;门牌信息;楼栋号,190403,[],116.43349837436017,39.94233918168774
B0FFFCS7ET,当代MOMAT2号楼,地名地址信息;门牌信息;楼栋号,190403,[],116.4319954200248,39.94868553157299
B0FFFD0PB9,万国城MOMA12号楼,地名地址信息;门牌信息;楼栋号,190403,[],116.43374130314527,39.946996394521626
B000AA74EX,左家庄西街10号楼,地名地址信息;门牌信息;楼栋号,190403,[],116.43428206808436,39.95017016080451
B000A9UXC3,香河园路一号院T2,地名地址信息;门牌信息;楼栋号,190403,[],116.43147664988518,39.94640181434102
B000A9EGHF,西香河园乙5号院1号楼,地名地址信息;门牌信息;楼栋号,190403,[],116.42865158908202,39.94272475871373
B000A9EDNF,胡家园社区西区10号楼,地名地址信息;门牌信息;楼栋号,190403,[],116.43684372081081,39.94288882611257
B000A9ECAF,胡家园社区西区15号楼,地名地址信息;门牌信息;楼栋号,190403,[],116.43684758939028,39.94399578923555
B000A9E21L,胡家园社区西区8号楼,地名地址信息;门牌信息;楼栋号,190403,[],116.43677848649821,39.94355468512952
B0FFF0APSW,左家庄西街5号院5号楼,地名地址信息;门牌信息;楼栋号,190403,[],116.43365478892778,39.94958715116472
B000A9QCQI,左家庄西街1号院2号楼,地名地址信息;门牌信息;楼栋号,190403,[],116.43355045158019,39.95048694559195
B000A9DQ20,砖角楼南里8号楼,地名地址信息;门牌信息;楼栋号,190403,[],116.4280185441232,39.94952059512732
B0FFFH3AGV,左家庄11号院7号楼,地名地址信息;门牌信息;楼栋号,190403,[],116.43527139878088,39.94893686965926
B0FFG4VSZJ,香河园北街1号院T1号楼,地名地址信息;门牌信息;楼栋号,190403,[],116.43289427344718,39.948811950968185
B0FFG4VO8W,东直门外察慈小区7号楼,地名地址信息;门牌信息;楼栋号,190403,[],116.4342670871248,39.94188146247677
B0FFHRJ7MY,左家庄12号院40号楼,地名地址信息;门牌信息;楼栋号,190403,[],116.43547277306241,39.94952218937316
B0FFF8F4CU,左家庄12号院6号楼,地名地址信息;门牌信息;楼栋号,190403,[],116.43592359465116,39.95101890362567
B0FFH18QDX,左家庄11号院6号楼,地名地址信息;门牌信息;楼栋号,190403,[],116.43514612460405,39.94890665845254
B0FFGSDZSY,左家庄12号大院30号楼,地名地址信息;门牌信息;楼栋号,190403,[],116.43546170472621,39.94986615697953
B0FFGSDZ9F,左家庄12号院85号楼,地名地址信息;门牌信息;楼栋号,190403,[],116.43480507961206,39.95120899292703
B0FFGSDYAB,左家庄12号院89号楼,地名地址信息;门牌信息;楼栋号,190403,[],116.43490432600812,39.950989168434496
B0FFGSDXMA,左家庄12号院87号楼,地名地址信息;门牌信息;楼栋号,190403,[],116.4347201165109,39.949446919601534
B0FFGSDUZA,左家庄12号院46号楼,地名地址信息;门牌信息;楼栋号,190403,[],116.43640987368498,39.94962480117729
B0FFGSDRHR,左家庄12号院86号楼,地名地址信息;门牌信息;楼栋号,190403,[],116.43467878770846,39.95132377663583
B0FFGSDPGC,左家庄12号院24号楼,地名地址信息;门牌信息;楼栋号,190403,[],116.43504668021035,39.950674420834865
B0FFGSDO1N,左家庄12号院45号楼,地名地址信息;门牌信息;楼栋号,190403,[],116.43606012599723,39.94926020840472
B0FFGSDLTP,左家庄12号院91号楼,地名地址信息;门牌信息;楼栋号,190403,[],116.43586360852741,39.94984384645751
B0FFGSDKHE,左家庄12号院23号楼,地名地址信息;门牌信息;楼栋号,190403,[],116.4350466599945,39.95083341455598
B0FFGSDJOG,左家庄12号院29号楼,地名地址信息;门牌信息;楼栋号,190403,[],116.43567414377323,39.95015150895924
B0FFFCYKEG,左家庄西街1号院1号楼,地名地址信息;门牌信息;楼栋号,190403,[],116.43335500882777,39.95069361980202
B0FFGBD3CW,柳芳南里甲14号楼,地名地址信息;门牌信息;楼栋号,190403,[],116.43201115846958,39.95100046524699
B000A9NOTP,清华附中朝阳分校甲20号楼,地名地址信息;门牌信息;楼栋号,190403,[],116.4307225472848,39.95101847918903
B0FFGBC0TX,左家庄11号院5号楼,地名地址信息;门牌信息;楼栋号,190403,[],116.4354437885485,39.94889016478475
B0FFG4LSO8,左家庄12号院44号楼,地名地址信息;门牌信息;楼栋号,190403,[],116.43572942811642,39.94888765342741
B0FFG4LKBD,左家庄12号院83号楼,地名地址信息;门牌信息;楼栋号,190403,[],116.43457161988047,39.950796618123455
B0FFG4LH9T,左家庄西街12号楼,地名地址信息;门牌信息;楼栋号,190403,[],116.43444656573969,39.94907047739694
B0FFG4L4IS,左家庄12号院82号楼,地名地址信息;门牌信息;楼栋号,190403,[],116.4345004424989,39.95096849259585
B0FFG4L34Q,左家庄12号院81号楼,地名地址信息;门牌信息;楼栋号,190403,[],116.43449038373925,39.9512584644382
B0FFG4VTD0,左家庄12号院47号楼,地名地址信息;门牌信息;楼栋号,190403,[],116.43679470605447,39.95000445978423
B0FFG4VT6W,左家庄12号院14号楼,地名地址信息;门牌信息;楼栋号,190403,[],116.4359426119144,39.951220928478016
B0FFG4VSYP,左家庄12号院27号楼,地名地址信息;门牌信息;楼栋号,190403,[],116.43537946288782,39.950326998751024
B0FFG4VRZJ,左家庄12号院26号楼,地名地址信息;门牌信息;楼栋号,190403,[],116.43494048985458,39.95032625537622
B0FFG4VRC2,左家庄12号院15号楼,地名地址信息;门牌信息;楼栋号,190403,[],116.43586245512954,39.951032797772356
B0FFG4VQWO,左家庄12号院17号楼,地名地址信息;门牌信息;楼栋号,190403,[],116.43541149697691,39.950621041749514
B0FFG4VQMM,左家庄12号院43号楼,地名地址信息;门牌信息;楼栋号,190403,[],116.43533550976062,39.949185968804855
B0FFG4VISY,左家庄12号院20号楼,地名地址信息;门牌信息;楼栋号,190403,[],116.43528812924103,39.951354803082104
B0FFG4VHJJ,左家庄12号院84号楼,地名地址信息;门牌信息;楼栋号,190403,[],116.43485019803416,39.95105807466828
B0FFG4VHC5,左家庄12号院42号楼,地名地址信息;门牌信息;楼栋号,190403,[],116.43693708472337,39.94960172625397
B0FFG4V6VQ,左家庄12号院31号楼,地名地址信息;门牌信息;楼栋号,190403,[],116.43594478448085,39.94989898414537
B0FFG4LD91,东直门外察慈小区15号楼,地名地址信息;门牌信息;楼栋号,190403,[],116.43400445507798,39.94238100866732
BZDCPW02EH,北二环辅路出口(东二环北向),地名地址信息;交通地名;城市快速路出口,190308,[],116.42769667007683,39.94386736882693
B0FFF8Y769,12号院18号楼,地名地址信息;门牌信息;楼栋号,190403,[],116.4353783930209,39.950858976035114
B0FFF8V7OD,12号院19号楼,地名地址信息;门牌信息;楼栋号,190403,[],116.4353422811549,39.95110690485638
B0FFF8OZ3T,12号院41号楼,地名地址信息;门牌信息;楼栋号,190403,[],116.43599694175639,39.9495870863951
B0FFF8NLRG,左家庄12号院28号楼,地名地址信息;门牌信息;楼栋号,190403,[],116.43513094000822,39.950096585990686
B0FFF8I0HU,左家庄西街1号院5号楼,地名地址信息;门牌信息;楼栋号,190403,[],116.43361673299002,39.949386096931
B0FFFCTCAU,左家庄西街5号院1号楼,地名地址信息;门牌信息;楼栋号,190403,[],116.43343643556098,39.948696830438536
B000A9NP1R,柳芳南里21号楼,地名地址信息;门牌信息;楼栋号,190403,[],116.42924064873759,39.95105627912541
B0FFGL92OI,香河园街1号院北区10号楼,地名地址信息;门牌信息;楼栋号,190403,[],116.43025284058653,39.949263841448236
B000A9QHWA,左家庄西街1号院内6号楼,地名地址信息;门牌信息;楼栋号,190403,[],116.43339119011172,39.94987171078747
B0FFLL6YYK,安定门东滨河与香河园西街交叉口,地名地址信息;交通地名;路口名,190302,[],116.42826311798541,39.94857697632594
B0FFLL3334,安定门东滨河与西坝河南路交叉口,地名地址信息;交通地名;路口名,190302,[],116.42922784367668,39.94932932840777
B0FFLL3331,安定门东滨河与西坝河南路交叉口,地名地址信息;交通地名;路口名,190302,[],116.42826311798541,39.94857697632594
B000A9NZ1O,香河园北里社区1号楼,地名地址信息;门牌信息;楼栋号,190403,[],116.43272468212574,39.95066660682713
B0FFH5SHJ7,东直门北大街甲6号院2号楼,地名地址信息;门牌信息;楼栋号,190403,[],116.42944958997744,39.946804750819446
B0FFFCRQPE,左家庄西街1号院内3号楼,地名地址信息;门牌信息;楼栋号,190403,[],116.43400145058314,39.950246693933046
B0G3YSW5LH,当代MOMA1号楼,地名地址信息;门牌信息;楼栋号,190403,[],116.43267981456484,39.94888360533258
B0G2VCM3UB,当代MOMA8号楼,地名地址信息;门牌信息;楼栋号,190403,[],116.43209347504198,39.949842639872124
B0G2VCLXFK,当代MOMA9号楼,地名地址信息;门牌信息;楼栋号,190403,[],116.431297869774,39.94969340924788
B0G2VCLBIL,当代MOMA2号楼,地名地址信息;门牌信息;楼栋号,190403,[],116.43199540717521,39.948786527581426
B0G2VCK2OQ,当代MOMA7号楼,地名地址信息;门牌信息;楼栋号,190403,[],116.43268972778364,39.94973058784412
B0FFL91BH7,当代MOMAT5号楼,地名地址信息;门牌信息;楼栋号,190403,[],116.43069874835356,39.94906252004135
B0FFM96T0G,团结湖北口4号楼,地名地址信息;门牌信息;楼栋号,190403,[],116.429040380883,39.942285334536386
B0FFF8Q2EH,东直门北大街甲6号院5号楼,地名地址信息;门牌信息;楼栋号,190403,[],116.42893872514696,39.9459260442119
B0FFF86YE5,东直门北大街甲6号院7号楼,地名地址信息;门牌信息;楼栋号,190403,[],116.42888468428515,39.945440985558065
B0FFF7TIR4,东直门北大街甲6号院3号楼,地名地址信息;门牌信息;楼栋号,190403,[],116.42890156088721,39.946663961643395
B0FFK3K126,东直门北大街2号楼,地名地址信息;门牌信息;楼栋号,190403,[],116.42879829041475,39.94725379006311
BZDCPW0020,北新桥出口(S12机场高速西向),地名地址信息;交通地名;高速路出口,190304,[],116.42727994067361,39.943634803178234
B000A9EG9L,东直门北大街甲6号院6号楼,地名地址信息;门牌信息;楼栋号,190403,[],116.42890764382518,39.946101992533634
B0FFF8KC8F,东直门北大街甲6号院11号楼,地名地址信息;门牌信息;楼栋号,190403,[],116.43001966606502,39.94703858155801
B000A857UY,西香河园路西口,地名地址信息;地名地址信息;地名地址信息,190000,[],116.42867253985855,39.943422761068305
B000A9NYOS,东直门外察慈14号楼,地名地址信息;门牌信息;楼栋号,190403,[],116.4334443122814,39.94192011034301
B000A9UV7Y,左家庄西街5号院2号楼,地名地址信息;门牌信息;楼栋号,190403,[],116.43372603373197,39.94886129617622
B0FFLN9C8Y,左家庄西街5号院5号楼1单元,地名地址信息;门牌信息;楼栋号,190403,[],116.43351646354024,39.949820916406914
B0FFFYIQTH,东直门北大街10号楼-3单元,地名地址信息;门牌信息;门牌信息,190400,[],116.42846521550389,39.942910485912044
B000A9UUMC,左家庄西街5号院3号楼,地名地址信息;门牌信息;楼栋号,190403,[],116.43338927958402,39.949134736651935
B000A9QET7,左家庄西街1号院3号楼,地名地址信息;门牌信息;楼栋号,190403,[],116.43315960006547,39.95064830550399
B000A9QDCS,左家庄西街5号院4号楼,地名地址信息;门牌信息;楼栋号,190403,[],116.43332008386842,39.949517609406044
B000A9NVU4,西香河园乙5号院2号楼,地名地址信息;门牌信息;楼栋号,190403,[],116.4288529354076,39.94299103661205
B0FFIL1W9L,北二里庄14号楼,地名地址信息;门牌信息;楼栋号,190403,[],116.43721362780444,39.94247049616083
B0FFICYVJ6,北二里庄12号楼,地名地址信息;门牌信息;楼栋号,190403,[],116.43714146424853,39.94244236936133
B0FFICYJ7T,北二里庄13号楼,地名地址信息;门牌信息;楼栋号,190403,[],116.43712340599595,39.942572332250926
B0FFFAA5ZX,左家庄桥,地名地址信息;交通地名;立交桥,190306,[],116.44002148450149,39.94910836681551
B0FFGQ7N0B,三里屯西六街,地名地址信息;交通地名;道路名,190301,[],116.44673474355004,39.943047054510416
B0FFGQ6WXI,三源里南小街,地名地址信息;交通地名;道路名,190301,[],116.4455638081519,39.94890136298879
BZDCPW027A,三里屯北小街,地名地址信息;交通地名;道路名,190301,[],116.44624547867956,39.942434044579464
B0FFGZCDOW,东直门外小街,地名地址信息;交通地名;道路名,190301,[],116.44275190684279,39.94473881291994
BZDCPW024R,新东路,地名地址信息;交通地名;道路名,190301,[],116.44418495908073,39.94228078670433
B0FFGQ6NJ2,东直门外斜街,地名地址信息;交通地名;道路名,190301,[],116.44055578757275,39.94921837287099
B0GKBNCW7G,新源里社区,地名地址信息;普通地名;村庄级地名,190108,[],116.44606296495967,39.95046934481837
B0HB346HLC,十八号,地名地址信息;普通地名;村庄级地名,190108,[],116.4411839874568,39.94420777153902
B0FFGYE51N,左南里社区,地名地址信息;普通地名;村庄级地名,190108,[],116.43856068395928,39.951228576020796
B0FFG96LT3,世方豪庭A座,地名地址信息;门牌信息;楼栋号,190403,[],116.44548785578623,39.94690128357699
BZDCPW02GS,亮马河南路,地名地址信息;交通地名;道路名,190301,[],116.44573883249645,39.94454689910037
BZDCPW02EY,胡家园路,地名地址信息;交通地名;道路名,190301,[],116.43823669993493,39.945030230222464
BZDCPW02E7,新源西里中路,地名地址信息;交通地名;道路名,190301,[],116.44104556819944,39.944782482883966
BZDCPW02E6,新源西里南街,地名地址信息;交通地名;道路名,190301,[],116.44231270649394,39.94530992356166
BZDCPW02E5,新源西里东街,地名地址信息;交通地名;道路名,190301,[],116.44078663696612,39.94703689844882
B0FFFDBO4A,左家庄街道,地名地址信息;普通地名;街道级地名,190107,[],116.44497832496181,39.94817117890003
B0FFI8CG2Y,新源里东8号楼,地名地址信息;地名地址信息;地名地址信息,190000,[],116.44378400255052,39.949399694155744
B000A9O56F,新源里西11号楼,地名地址信息;门牌信息;楼栋号,190403,[],116.44457222353307,39.94830933933721
B0FFI8OBVH,新东路与新源南路交叉口,地名地址信息;交通地名;路口名,190302,[],116.44400599124292,39.946199268981395
B0FFGGXOUA,新东路与香河园路交叉口,地名地址信息;交通地名;路口名,190302,[],116.43856685123431,39.95002463455499
B000A9E21D,胡家园社区西区5号楼,地名地址信息;门牌信息;楼栋号,190403,[],116.43785488548325,39.944352567371254
B0FFF3L5MS,胡家园社区西区16号楼,地名地址信息;门牌信息;楼栋号,190403,[],116.43748704234322,39.944213913815496
B000A9NWOM,胡家园2号楼,地名地址信息;门牌信息;楼栋号,190403,[],116.4392874383001,39.94325722652848
B0FFI8OYJC,东直门外小街与春秀路交叉口,地名地址信息;交通地名;路口名,190302,[],116.4382981472692,39.94264843566501
B0FFI8P2AQ,亮马河南路与新东路交叉口,地名地址信息;交通地名;路口名,190302,[],116.44418570143213,39.94433370723763
B0FFHPGJYR,新东路与S12机场高速交叉口,地名地址信息;交通地名;路口名,190302,[],116.43992124819414,39.94903518133306
B0FFI8LVYY,新源西里东街与春秀路交叉口,地名地址信息;交通地名;路口名,190302,[],116.43783268496237,39.94552348130971
B0FFI8L6T9,新东路与新源西里东街交叉口,地名地址信息;交通地名;路口名,190302,[],116.44420362753479,39.945292705916934
B0FFI8KGTK,新源西里中街与春秀路交叉口,地名地址信息;交通地名;路口名,190302,[],116.43828579173858,39.94522331168159
B0FFI8GTGE,三里屯西六街与新东路交叉口,地名地址信息;交通地名;路口名,190302,[],116.444307187824,39.943029005941874
B0FFHPKRP9,东直门外斜街与新东路交叉口,地名地址信息;交通地名;路口名,190302,[],116.43986109548933,39.949079066755
B0FFGGJZ8M,左家庄南斜街与新东路交叉口,地名地址信息;交通地名;路口名,190302,[],116.43857885792717,39.9501976496868
B0FFGGA2XT,左家庄南斜街与香河园路交叉口,地名地址信息;交通地名;路口名,190302,[],116.43855478573508,39.95031460113885
B0FFHPJYCM,新东路与S12机场高速出口交叉口,地名地址信息;交通地名;路口名,190302,[],116.43992123409996,39.949146176945995
B0FFGGSMC5,三里屯北小街与亮马河南路交叉口,地名地址信息;交通地名;路口名,190302,[],116.44624820826061,39.94463296362427
B000AA16KT,三里屯北小街8号楼,地名地址信息;门牌信息;楼栋号,190403,[],116.44675270837877,39.94371706621683
B000A9NQK0,胡家园7号楼,地名地址信息;门牌信息;楼栋号,190403,[],116.43820681230196,39.94358523301342
B0FFH4RFJL,三元里南小街与三源里南小街交叉口,地名地址信息;交通地名;路口名,190302,[],116.44210764914564,39.949526355452
B0FFHPKDF7,东直门外斜街与新源西里东街交叉口,地名地址信息;交通地名;路口名,190302,[],116.43922867996439,39.948122926090825
B0FFHPJE04,三源里南小街与东直门外斜街交叉口,地名地址信息;交通地名;路口名,190302,[],116.44129454778827,39.949871761731735
B0FFGGWH44,东直门外小街与新源西里东街交叉口,地名地址信息;交通地名;路口名,190302,[],116.44131532753185,39.94412502785782
B0FFGGUKJM,新源西里东街与新源西里中街交叉口,地名地址信息;交通地名;路口名,190302,[],116.44084500598005,39.94527007950712
B0FFGGAG92,三里屯北小街与三里屯西六街交叉口,地名地址信息;交通地名;路口名,190302,[],116.44625141833708,39.94304003317151
B0FFGGA4KX,东直门外小街与新源西里东街交叉口,地名地址信息;交通地名;路口名,190302,[],116.44374942639995,39.945331784302034
B000A9QMTR,新源里东小区甲3号楼,地名地址信息;门牌信息;楼栋号,190403,[],116.442837442608,39.950151769734745
B0FFHPLOKI,S12机场高速与S12机场高速出口交叉口,地名地址信息;交通地名;路口名,190302,[],116.4403843394892,39.94940804004653
B0FFHPGZ6K,东直门外斜街与S12机场高速出口交叉口,地名地址信息;交通地名;路口名,190302,[],116.43992123409996,39.949146176945995
B000A9NWOJ,胡家园社区19号楼,地名地址信息;门牌信息;楼栋号,190403,[],116.4400832529364,39.94423767471888
B0FFG4LPV5,新源南路15号楼,地名地址信息;门牌信息;楼栋号,190403,[],116.44636424728328,39.94683612145714
B0FFFH3620,新源里东6号楼,地名地址信息;门牌信息;楼栋号,190403,[],116.44378185357567,39.95053264533985
B000A9NR4E,胡家园社区西区4号楼,地名地址信息;门牌信息;楼栋号,190403,[],116.43796718361318,39.944083780199335
B0FFFH363J,新源街17号楼,地名地址信息;门牌信息;楼栋号,190403,[],116.44494299745956,39.95001303377633
B0FFIVN2ZN,新源里生态小区东11号楼,地名地址信息;门牌信息;楼栋号,190403,[],116.44409564364106,39.950816269437375
B0FFG4VWBV,新源南路8号楼,地名地址信息;门牌信息;楼栋号,190403,[],116.4461938433853,39.94634478184395
B0FFICVHIA,北二里庄15号楼,地名地址信息;门牌信息;楼栋号,190403,[],116.4373569680836,39.942410753191034
B0FFI8EPRV,东外小街10号院2号楼,地名地址信息;门牌信息;楼栋号,190403,[],116.4387282128308,39.9423182331009
B0FFGSDX71,胡家园23号楼,地名地址信息;门牌信息;楼栋号,190403,[],116.43799735348831,39.94330386537975
B0FFGSDQP4,胡家园20号楼,地名地址信息;门牌信息;楼栋号,190403,[],116.43862276657377,39.94385297954643
B0FFH9S2GY,东直门外小街甲2号楼,地名地址信息;门牌信息;楼栋号,190403,[],116.44000033357132,39.94199460720857
B000A9O1VQ,新源里生态小区西4号楼,地名地址信息;门牌信息;楼栋号,190403,[],116.44167369935087,39.94832455631618
B000A9NR48,胡家园1号楼,地名地址信息;门牌信息;楼栋号,190403,[],116.44005425509039,39.94365864295507
B000A9EAR1,新源里西18号楼,地名地址信息;门牌信息;楼栋号,190403,[],116.44539751354574,39.947680065287024
B0FFF8MZZS,胡家园社区西区11号楼,地名地址信息;门牌信息;楼栋号,190403,[],116.43786010504782,39.94271664130738
B000A9NWOP,胡家园21号楼,地名地址信息;门牌信息;楼栋号,190403,[],116.43877618048093,39.94347927519027
B000A9O4BO,新源里西9号楼,地名地址信息;门牌信息;楼栋号,190403,[],116.44305522053422,39.94845726938881
B000A9ECAJ,胡家园17号楼,地名地址信息;门牌信息;楼栋号,190403,[],116.43863672513058,39.944442981803896
B000A9E21H,胡家园社区西区6号楼,地名地址信息;门牌信息;楼栋号,190403,[],116.43795809938025,39.94457974426855
B000A9UVMK,新源里东10号楼,地名地址信息;门牌信息;楼栋号,190403,[],116.44432434407648,39.950059764312144
B0FFFH6BPY,三里屯北小街6号楼,地名地址信息;门牌信息;楼栋号,190403,[],116.44637662718715,39.94409825533601
B0FFFD08JH,新源里甲12号楼,地名地址信息;门牌信息;楼栋号,190403,[],116.4453131392959,39.9488418446233
B0FFG4LQSA,新源西里中街2号楼,地名地址信息;门牌信息;楼栋号,190403,[],116.44037542563598,39.94855405671026
B0FFG4UPB9,新源西里中街6号楼,地名地址信息;门牌信息;楼栋号,190403,[],116.44099802654394,39.94812226027208
B0FFIRDIQ2,新源里西8号楼,地名地址信息;门牌信息;楼栋号,190403,[],116.44277352834196,39.948170720758036
B0FFINM4QE,新源里西-3号楼,地名地址信息;门牌信息;楼栋号,190403,[],116.44186008596137,39.94900089241383
B0FFINM3SV,新源里西-2号楼,地名地址信息;门牌信息;楼栋号,190403,[],116.44114332106942,39.94866651786807
B0FFILG159,塔园外交公寓1号楼,地名地址信息;门牌信息;楼栋号,190403,[],116.44176272141156,39.942029977312096
B0FFILDVN8,塔园外交公寓9号楼,地名地址信息;门牌信息;楼栋号,190403,[],116.44163227141239,39.94297768639804
B0FFILDV89,塔园外交公寓2号楼,地名地址信息;门牌信息;楼栋号,190403,[],116.44209957254182,39.942067633288524
B0FFIVNO7T,新源里东3号楼,地名地址信息;门牌信息;楼栋号,190403,[],116.44249259212825,39.949856099032296
B0FFIVLUCQ,新源里东7号楼,地名地址信息;门牌信息;楼栋号,190403,[],116.44371475446829,39.949924533832885
B0FFHUOCHA,新源西里中街10号楼,地名地址信息;门牌信息;楼栋号,190403,[],116.44194951281597,39.94742312887583
B0FFHTLCIT,新源里西5号楼,地名地址信息;门牌信息;楼栋号,190403,[],116.44226713333858,39.948917692136625
B0FFHWW6VG,新源里西19号楼,地名地址信息;门牌信息;楼栋号,190403,[],116.44297913098396,39.94760715127942
B0FFGICA2E,新源西里东街6号楼,地名地址信息;门牌信息;楼栋号,190403,[],116.4431177639468,39.945444512570056
B0FFHPCPDT,塔园外交公寓7号楼,地名地址信息;门牌信息;楼栋号,190403,[],116.44289340964289,39.9436521365294
B0FFF8OOXS,新源里16号院2号楼,地名地址信息;门牌信息;楼栋号,190403,[],116.44387051759111,39.94712495832773
B0FFF8ONUV,新源里乙12号楼,地名地址信息;门牌信息;楼栋号,190403,[],116.4456059428356,39.94873745716533
B0FFH14HAA,新源里18号楼,地名地址信息;门牌信息;楼栋号,190403,[],116.44487402757181,39.948315958430484
B0FFGRJ0RY,新源里东11号院3号楼,地名地址信息;门牌信息;楼栋号,190403,[],116.44345092918671,39.95099196120892
B0FFGSDYSK,新源街26号楼,地名地址信息;门牌信息;楼栋号,190403,[],116.44645809190872,39.950100191344674
B0FFGSDSZJ,新源里西17号楼,地名地址信息;门牌信息;楼栋号,190403,[],116.44556093743329,39.94781739959487
B0FFFPB90J,左家庄甲12号院3号楼,地名地址信息;门牌信息;楼栋号,190403,[],116.43829804522373,39.95134309333219
B0FFFPB90F,左家庄甲12号院1号楼,地名地址信息;门牌信息;楼栋号,190403,[],116.43840240626892,39.950448318160454
B0FFFPB908,左家庄甲12号院2号楼,地名地址信息;门牌信息;楼栋号,190403,[],116.43832416316333,39.950901158118015
B0FFFH363N,新源街21号楼,地名地址信息;门牌信息;楼栋号,190403,[],116.44536013882448,39.949846902623705
B000AA6WAV,新源里生态小区东2号楼,地名地址信息;门牌信息;楼栋号,190403,[],116.44279927434759,39.95070267237887
B0FFGBC1YJ,左家庄15号院2号楼,地名地址信息;门牌信息;楼栋号,190403,[],116.43741111374298,39.95014454509932
B0FFG9722I,新东路1号院6号楼,地名地址信息;门牌信息;楼栋号,190403,[],116.44388696949855,39.943894118785366
B0FFG4VK9H,新源西里东街9号楼,地名地址信息;门牌信息;楼栋号,190403,[],116.44235079054158,39.945415994275166
B0FFFH2NEV,新源里生态小区西2号楼,地名地址信息;门牌信息;楼栋号,190403,[],116.44082750963445,39.948845905420605
B0FFG4LTE1,新源西里中街3号楼,地名地址信息;门牌信息;楼栋号,190403,[],116.43968187143558,39.94739479751597
B0FFG4LR66,新源街15号楼,地名地址信息;门牌信息;楼栋号,190403,[],116.44618423217615,39.950972579858174
B0FFG4LQTW,新源西里中街4号楼,地名地址信息;门牌信息;楼栋号,190403,[],116.44054288821089,39.9481713894908
B0FFG4LQ0D,新源西里中街17号楼,地名地址信息;门牌信息;楼栋号,190403,[],116.43837190967488,39.94590444132156
B0FFG4LPOM,新源西里中街12号楼,地名地址信息;门牌信息;楼栋号,190403,[],116.44160769417289,39.9470474783936
B0FFG4LOQV,新源南路11号楼,地名地址信息;门牌信息;楼栋号,190403,[],116.44680443205841,39.947032045566495
B0FFG4LONN,新源街14号楼,地名地址信息;门牌信息;楼栋号,190403,[],116.44717392509479,39.95121566857431
B0FFG4LH74,新源街11号楼,地名地址信息;门牌信息;楼栋号,190403,[],116.44548434526969,39.95086412063979
B0FFG4LH3F,新源西里中街19号楼,地名地址信息;门牌信息;楼栋号,190403,[],116.43963901850911,39.94540979560607
B0FFG4LCN1,新源西里中街16号楼,地名地址信息;门牌信息;楼栋号,190403,[],116.43802907367855,39.94610181235105
B0FFG4LA1D,新源街二小区33号楼,地名地址信息;门牌信息;楼栋号,190403,[],116.44708182558068,39.9499835202496
B0FFG4L70D,新源西里东街1号楼,地名地址信息;门牌信息;楼栋号,190403,[],116.44360796265967,39.94606747028532
B0FFG4L202,新源街27号楼,地名地址信息;门牌信息;楼栋号,190403,[],116.4460349901204,39.94966731759351
B0FFG4VVHG,左家庄15号院4号楼,地名地址信息;门牌信息;楼栋号,190403,[],116.4374480594242,39.95125156747598
B0FFG4VS2B,世方豪庭16号楼,地名地址信息;门牌信息;楼栋号,190403,[],116.44520308941416,39.94689469323011
B0FFG4VH4E,三里屯北小街4号楼,地名地址信息;门牌信息;楼栋号,190403,[],116.44710959893014,39.9444717961943
B0FFG4VG9H,新源街9号楼,地名地址信息;门牌信息;楼栋号,190403,[],116.44525366983537,39.9512886253695
B0FFG4VBPF,新源街23号楼,地名地址信息;门牌信息;楼栋号,190403,[],116.4465151720394,39.95070528823944
B0FFG4V3OY,新源西里中街7号楼,地名地址信息;门牌信息;楼栋号,190403,[],116.4388478934702,39.9471002641698
B0FFG4LPK1,东直门外小街8号院2号楼,地名地址信息;门牌信息;楼栋号,190403,[],116.43954214288576,39.942567727026066
B0FFF8NNCL,新东路1号院3号楼,地名地址信息;门牌信息;楼栋号,190403,[],116.4436585997622,39.94207872946949
B0FFF8HNK9,新源街19号楼,地名地址信息;门牌信息;楼栋号,190403,[],116.44575915087518,39.95037471244198
B0FFF894DM,新源里西甲6号楼,地名地址信息;门牌信息;楼栋号,190403,[],116.44280359084574,39.94828977569508
B0FFF80NLW,新东路1号院4号楼,地名地址信息;门牌信息;楼栋号,190403,[],116.44364348632536,39.942662675973175
B0FFF7Z8EE,新东路1号院5号楼,地名地址信息;门牌信息;楼栋号,190403,[],116.44363738853018,39.94330963816596
B0FFFNYQS3,东直门外小街8号院3号楼,地名地址信息;门牌信息;楼栋号,190403,[],116.43940076077754,39.942876451824844
B0FFIPRGMO,新源里生态小区东4号楼,地名地址信息;门牌信息;楼栋号,190403,[],116.44325146907572,39.950520580121385
B0FFIR0LEB,新源里生态小区东9号楼,地名地址信息;门牌信息;楼栋号,190403,[],116.44438358849435,39.94936891224238
B0FFFH5HXB,东直门外小街10号院1号楼,地名地址信息;门牌信息;楼栋号,190403,[],116.4386269855368,39.94220405234856
B0FFG4VYF9,新源西里东街小区7号楼,地名地址信息;门牌信息;楼栋号,190403,[],116.44237778018152,39.946044022659464
B0FFG4VWPA,新源西里东街小区8号楼,地名地址信息;门牌信息;楼栋号,190403,[],116.44161086521781,39.945759535220425
B0FFG4VDWU,新源里生态小区东5号楼,地名地址信息;门牌信息;楼栋号,190403,[],116.44285404325545,39.94574397593225
B0FFG4VSIX,新源西里中街小区1号楼,地名地址信息;门牌信息;楼栋号,190403,[],116.43934702787536,39.94763516460915
B0FFG4VGBP,新源西里东街小区3号楼,地名地址信息;门牌信息;楼栋号,190403,[],116.44364413146324,39.94548156615999
B0FFG4VG6A,新源西里中街小区5号楼,地名地址信息;门牌信息;楼栋号,190403,[],116.43998764168191,39.94721237770213
B0FFLPWXKG,新源里甲6号楼,地名地址信息;门牌信息;楼栋号,190403,[],116.44199355709205,39.94795819387381
B0FFFD0DC7,新源里生态小区东1号楼,地名地址信息;门牌信息;楼栋号,190403,[],116.44211560208005,39.95005835013778
B000A9O47X,新源里西12号楼,地名地址信息;门牌信息;楼栋号,190403,[],116.44534534500733,39.94790094836186
B0FFLL1Z3R,东直门外斜街与S12机场高速交叉口,地名地址信息;交通地名;路口名,190302,[],116.43941207099985,39.94853824988378
B0FFHMBO6K,新源里生态小区东13号楼,地名地址信息;门牌信息;楼栋号,190403,[],116.44473136843068,39.95051557890109
B0HB9LEMMP,新源里西甲1号楼,地名地址信息;门牌信息;楼栋号,190403,[],116.44168059298092,39.949302531286314
B000A9UYXA,新源里生态小区东甲3号楼,地名地址信息;门牌信息;楼栋号,190403,[],116.44318029189866,39.95045844031424
B0FFK5VWDH,新源西里中街8号楼,地名地址信息;门牌信息;楼栋号,190403,[],116.4410903642371,39.94727847065303
B0FFMAUKOU,新风北街2号楼,地名地址信息;门牌信息;楼栋号,190403,[],116.44431470252381,39.947023863927036
B0FFM8IR8Y,新源里17号楼,地名地址信息;门牌信息;楼栋号,190403,[],116.44523576304299,39.950170632166035
B0FFK8EWNC,新源里西-20号楼,地名地址信息;门牌信息;楼栋号,190403,[],116.44348746143166,39.947539170151686
B0FFGEOFQO,新源西里东街小区11号楼,地名地址信息;门牌信息;楼栋号,190403,[],116.44129310601745,39.945433933429435
B000A9O3JJ,新源里生态小区东甲8号楼,地名地址信息;门牌信息;楼栋号,190403,[],116.44424817734654,39.94978362002163
B0FFG4VDF2,新源西里东街小区10号楼,地名地址信息;门牌信息;楼栋号,190403,[],116.44182433868235,39.94628792941201
B0FFG4VB2W,新源西里东街小区12号楼,地名地址信息;门牌信息;楼栋号,190403,[],116.44125994757592,39.94602784612846
B0FFG4LQSI,新源西里中街小区15号楼,地名地址信息;门牌信息;楼栋号,190403,[],116.44027042286764,39.94653093756208
B0FFG4LHJG,新源西里中街小区11号楼,地名地址信息;门牌信息;楼栋号,190403,[],116.4406182249711,39.9469865793588
B0FFM67LTZ,新源里生态小区西3号楼,地名地址信息;门牌信息;楼栋号,190403,[],116.44216178137523,39.94957245970096
B000A9O481,新源里生态小区西6号楼,地名地址信息;门牌信息;楼栋号,190403,[],116.44209778893891,39.94822338732988
B0G0RPAZMC,新源西里东街小区4号楼,地名地址信息;门牌信息;楼栋号,190403,[],116.44282493253084,39.94602490709437
B0FFFYIUBZ,新源南路8号楼-3单元,地名地址信息;门牌信息;门牌信息,190400,[],116.44584890972982,39.94629906014865
B0FFF51970,香河园中里9号楼,地名地址信息;门牌信息;楼栋号,190403,[],116.43874716347662,39.95095792777272
B0FFFCYDMJ,新源里生态小区西甲5号楼,地名地址信息;门牌信息;楼栋号,190403,[],116.44285057611921,39.94936482670442
B000A9O56H,新源里生态小区西7号楼,地名地址信息;门牌信息;楼栋号,190403,[],116.4428827258694,39.948837911245036
B000A9O3JO,新源里西15号楼,地名地址信息;门牌信息;楼栋号,190403,[],116.44589881830797,39.94809509397342
B0FFK5W47K,东直门外小街10号院2号楼,地名地址信息;门牌信息;楼栋号,190403,[],116.4389346516004,39.942758594737114
B0FFFYIQYA,新源西里中街5号楼-2单元,地名地址信息;门牌信息;楼栋号,190403,[],116.43998762847785,39.94731637358743
B0FFFYIQI5,新源西里中街4号楼-1单元,地名地址信息;门牌信息;门牌信息,190400,[],116.44071029776377,39.94821670639586
B0FFFYIL86,新源西里中街6号楼-1单元,地名地址信息;门牌信息;门牌信息,190400,[],116.44094592749704,39.94787717005954
B0FFFYIQMW,新源西里东街5号楼-一单元,地名地址信息;门牌信息;门牌信息,190400,[],116.44314077470752,39.94583154324952
B000A9O1VI,新源里生态小区东12号楼,地名地址信息;门牌信息;楼栋号,190403,[],116.44422101886494,39.9504685378711
B000A9NWOH,胡家园社区18号楼,地名地址信息;门牌信息;楼栋号,190403,[],116.43945068724653,39.94441248402566
B0FFF3L5MY,新源里西14号楼,地名地址信息;门牌信息;楼栋号,190403,[],116.44541748826713,39.94830608216055
B0FFF3KAME,香河园中里8号楼,地名地址信息;门牌信息;楼栋号,190403,[],116.43924132535074,39.951162830095
B000A9NWEJ,胡家园社区29号楼,地名地址信息;门牌信息;楼栋号,190403,[],116.43976750119357,39.94407108849722
B0FFFAABNR,燕莎桥,地名地址信息;交通地名;立交桥,190306,[],116.45552206999612,39.946565819748066
B0FFH3VRJC,三里屯东五街,地名地址信息;交通地名;道路名,190301,[],116.45097185562025,39.94250836695884
B0FFGZCDLQ,顺源街,地名地址信息;交通地名;道路名,190301,[],116.45119742656219,39.951153538102105
B0FFGQ90JS,三里屯东六街,地名地址信息;交通地名;道路名,190301,[],116.45226953621048,39.943723280928474
BZDCPW024P,新源南路,地名地址信息;交通地名;道路名,190301,[],116.44940774763008,39.947071688641564
BZDCPW02A0,新源街,地名地址信息;交通地名;道路名,190301,[],116.44828718215456,39.950078113150155
B000A88H4B,东三环北路入口(东三环方向),地名地址信息;交通地名;城市快速路入口,190309,[],116.45536312112122,39.95018829632845
B0FFGGTFD7,新源街与顺源街交叉口,地名地址信息;交通地名;路口名,190302,[],116.4493121777449,39.94941738531196
B0FFI8LC11,新源南路与新源街交叉口,地名地址信息;交通地名;路口名,190302,[],116.44931248757615,39.946970482102984
B0FFGGGPR0,三里屯路与新源街交叉口,地名地址信息;交通地名;路口名,190302,[],116.44927664154389,39.944938482894585
B0FFGGCZ7D,三元里街与顺源街交叉口,地名地址信息;交通地名;路口名,190302,[],116.45069802137456,39.9507004266216
B0FFHVIDHA,亮马桥路与新源南路交叉口,地名地址信息;交通地名;路口名,190302,[],116.45533130053762,39.947982306671484
B000A9NVD7,顺源里小区16号楼,地名地址信息;门牌信息;楼栋号,190403,[],116.45127811075047,39.94761086033262
B0FFGGXP5H,亮马河南路与新源街交叉口,地名地址信息;交通地名;路口名,190302,[],116.44927664154389,39.944938482894585
B0FFGGM0CE,三元桥与东三环北路交叉口,地名地址信息;交通地名;路口名,190302,[],116.45529878495897,39.951276099582195
B0FFLKZAGM,东三环北路与亮马桥路交叉口,地名地址信息;交通地名;路口名,190302,[],116.45567636213893,39.94804913222
B000A9NSO0,顺源里6号楼,地名地址信息;门牌信息;楼栋号,190403,[],116.45097508424917,39.94869713074793
B0FFH4R4LO,三源里南小街与新源街交叉口,地名地址信息;交通地名;路口名,190302,[],116.44749589791223,39.95060038252585
B0FFGGFT9I,三里屯路与亮马河南路交叉口,地名地址信息;交通地名;路口名,190302,[],116.44927664154389,39.944938482894585
B0FFLKZAM4,东三环北路辅路与亮马桥路交叉口,地名地址信息;交通地名;路口名,190302,[],116.45586193464818,39.94808657756546
B0FFGGWKC2,三里屯东五街与三里屯路交叉口,地名地址信息;交通地名;路口名,190302,[],116.44931305346697,39.94250065936696
B0FFGGDW1B,三里屯东六街与三里屯路交叉口,地名地址信息;交通地名;路口名,190302,[],116.4492537320543,39.94370248102483
B0FFGGDPN8,三里屯西六街与三里屯路交叉口,地名地址信息;交通地名;路口名,190302,[],116.44930696751186,39.9430436245072
B0FFHPKDB5,东三环北路辅路与东方南路交叉口,地名地址信息;交通地名;路口名,190302,[],116.45556863122047,39.95119574983425
B0FFHPIVB7,东三环北路辅路与新源南路交叉口,地名地址信息;交通地名;路口名,190302,[],116.45533130053762,39.947982306671484
B0FFGGVPY5,三里屯东五街与三里屯东街交叉口,地名地址信息;交通地名;路口名,190302,[],116.4525104065319,39.94252188386409
B0FFFOV28D,顺源街16号楼,地名地址信息;门牌信息;楼栋号,190403,[],116.45002698318251,39.951404894215344
B0FFI8I66D,东三环北路与东三环北路入口交叉口,地名地址信息;交通地名;路口名,190302,[],116.45566496600883,39.94297330448479
B0FFI8HVEP,东三环北路与东三环北路入口交叉口,地名地址信息;交通地名;路口名,190302,[],116.45551464830982,39.94973067766981
B0FFI8HGWC,东三环北路与东三环北路出口交叉口,地名地址信息;交通地名;路口名,190302,[],116.45565786246878,39.94362026190421
B0FFHPJSWA,东三环北路辅路与亮马河南路交叉口,地名地址信息;交通地名;路口名,190302,[],116.45529647457946,39.94574531118262
B0FFHPJ042,东三环北路辅路与麦子店西街交叉口,地名地址信息;交通地名;路口名,190302,[],116.45588730317613,39.945787729050586
B0FFHPI3SH,东三环北路辅路与农展馆北路交叉口,地名地址信息;交通地名;路口名,190302,[],116.45587767842261,39.94256983256894
B0FFGGBGFX,东三环北路与东三环北路出口交叉口,地名地址信息;交通地名;路口名,190302,[],116.45559078804071,39.950496830468
B000A9NVM6,顺源里11号楼,地名地址信息;门牌信息;楼栋号,190403,[],116.45127505609675,39.94797283917495
B0FFHPK5CB,三里屯东六街与东三环北路辅路交叉口,地名地址信息;交通地名;路口名,190302,[],116.45529471929542,39.943759385148006
B0FFHPJIR8,三里屯东五街与东三环北路辅路交叉口,地名地址信息;交通地名;路口名,190302,[],116.4553209514477,39.94256049521761
B0FFI8LNE7,东三环北路出口与东三环北路辅路交叉口,地名地址信息;交通地名;路口名,190302,[],116.45568302586824,39.95088303705761
B0FFI8LCKD,东三环北路出口与东三环北路辅路交叉口,地名地址信息;交通地名;路口名,190302,[],116.45588653664848,39.94391480091328
B0FFI8L820,东三环北路入口与东三环北路辅路交叉口,地名地址信息;交通地名;路口名,190302,[],116.4558716816593,39.94239582497601
B0FFI8H6WA,东三环北路出口与东三环北路辅路交叉口,地名地址信息;交通地名;路口名,190302,[],116.4553189624221,39.94242449581938
B0FFI8GLSY,东三环北路入口与东三环北路出口交叉口,地名地址信息;交通地名;路口名,190302,[],116.45525675248462,39.950502029331645
B0FFHPING4,东三环北路入口与东三环北路辅路交叉口,地名地址信息;交通地名;路口名,190302,[],116.45585465264274,39.95014547921954
B000A9NUH3,顺源里9号楼,地名地址信息;门牌信息;楼栋号,190403,[],116.45062211625888,39.948194354039984
B0FFGSE7NM,东三环北路入口(东三环方向),地名地址信息;交通地名;城市快速路入口,190309,[],116.45574529613982,39.95027421076728
B000A9NTS5,顺源里小区12号楼,地名地址信息;门牌信息;楼栋号,190403,[],116.45025509723578,39.94781254511372
B000A9E7UP,顺源里10号楼,地名地址信息;门牌信息;楼栋号,190403,[],116.45135023211779,39.94833099596775
B0FFH13XPY,三源里街19号楼,地名地址信息;门牌信息;楼栋号,190403,[],116.44794807490274,39.951292330056525
B000A9E7UW,顺源里17号楼,地名地址信息;门牌信息;楼栋号,190403,[],116.45208950659891,39.94763871283775
B000A9EAAC,顺源里4号楼,地名地址信息;门牌信息;楼栋号,190403,[],116.44959505662953,39.94888203233222
B000A9E5LV,顺源里15号楼,地名地址信息;门牌信息;楼栋号,190403,[],116.45091003373923,39.94758802722463
B0FFINLSRO,三源里小区27号楼,地名地址信息;门牌信息;楼栋号,190403,[],116.45022165620442,39.9505383632575
B0FFIVLPQ7,新源街16号楼,地名地址信息;门牌信息;楼栋号,190403,[],116.44752995936561,39.95086544530629
B0FFHXCUK1,三源里小区22号楼,地名地址信息;门牌信息;楼栋号,190403,[],116.44902623643897,39.95040371648881
B0FFF8XW3Z,1号站临3号楼,地名地址信息;门牌信息;楼栋号,190403,[],116.44959903612458,39.94913503122517
B0FFH17DZQ,三里屯路甲3号院1号楼,地名地址信息;门牌信息;楼栋号,190403,[],116.44882455920893,39.943301552925114
B0FFH12YIC,东三环北街3号楼,地名地址信息;门牌信息;楼栋号,190403,[],116.45405197800167,39.951103144287494
B0FFGSDRQV,新源街45号楼,地名地址信息;门牌信息;楼栋号,190403,[],116.44879773600643,39.94921726145055
B0FFGSDPMM,新源街44号楼,地名地址信息;门牌信息;楼栋号,190403,[],116.44845480250885,39.94891352381469
B0FFGSDL4L,新源街41号楼,地名地址信息;门牌信息;楼栋号,190403,[],116.44803155698156,39.94933158769535
B0FFGSDKVB,顺源里5号楼,地名地址信息;门牌信息;楼栋号,190403,[],116.45061604379032,39.9486283233317
B000A9E64E,三源里小区25号楼,地名地址信息;门牌信息;楼栋号,190403,[],116.44993381094206,39.95063671656053
B0FFGBC0RO,顺源里7号楼,地名地址信息;门牌信息;楼栋号,190403,[],116.45064814064239,39.94860239660342
B0FFG966HW,三里屯路甲3号院2号楼,地名地址信息;门牌信息;楼栋号,190403,[],116.44849462770746,39.94327083263556
B0FFG9667R,顺源里14号楼,地名地址信息;门牌信息;楼栋号,190403,[],116.449617295638,39.94749513612865
B0FFG4LP5K,新源街20号楼,地名地址信息;门牌信息;楼栋号,190403,[],116.44827905617136,39.95089406346659
B0FFG4LDP1,新源街二小区37号楼,地名地址信息;门牌信息;楼栋号,190403,[],116.44735663105234,39.94964412125051
B0FFG4L1WF,新源南路7号楼,地名地址信息;门牌信息;楼栋号,190403,[],116.44748932152666,39.947102505758785
B0FFG4VSGU,三源里小区24号楼,地名地址信息;门牌信息;楼栋号,190403,[],116.4494966313399,39.950011769880206
B0FFG4VPQ2,新源街18号楼,地名地址信息;门牌信息;楼栋号,190403,[],116.44833728546095,39.95037921032457
B0FFG4VGBY,新源街35号楼,地名地址信息;门牌信息;楼栋号,190403,[],116.44755209246748,39.950300515046
B0FFG4V6DX,新源街二小区39号楼,地名地址信息;门牌信息;楼栋号,190403,[],116.44770563297062,39.94941588024458
B0FFG4V2XQ,新源街43号楼,地名地址信息;门牌信息;楼栋号,190403,[],116.4482622321908,39.94912509631448
BZDCPW0113,霄云桥出口(东三环北路北向),地名地址信息;交通地名;城市快速路出口,190308,[],116.45565195516501,39.95067797037918
B0HG6PBNLF,松榆西里社区61号楼,地名地址信息;门牌信息;楼栋号,190403,[],116.4478554665897,39.946136332367416
B0G09ZOL2L,三源里街20号楼,地名地址信息;门牌信息;楼栋号,190403,[],116.45115328632377,39.95123743468246
B0FFKE1B98,景王坟1号楼,地名地址信息;门牌信息;楼栋号,190403,[],116.44918964432551,39.942946369500326
B0FFMHBL5X,芳群园三区8号院3号楼,地名地址信息;门牌信息;楼栋号,190403,[],116.44733247279056,39.95036504119107
B0FFJOZ9CE,新源南路甲2号楼,地名地址信息;门牌信息;楼栋号,190403,[],116.45235137299666,39.946952342423465
B0FFG4VRPW,亮马桥外交公寓B区2号楼,地名地址信息;门牌信息;楼栋号,190403,[],116.45653165852927,39.95102108321544
B0FFG4VLGJ,亮马桥外交公寓B区3号楼,地名地址信息;门牌信息;楼栋号,190403,[],116.45676650499466,39.95015868840953
B0FFGQ9ZA4,东风北桥出口(东三环北路南向),地名地址信息;交通地名;城市快速路出口,190308,[],116.45522462381155,39.950734943332726
B0FFGQ7XEJ,东直门桥出口(东三环北路南向),地名地址信息;交通地名;城市快速路出口,190308,[],116.45539717742956,39.94263967472015
B0FFGQ616U,东风北桥出口(东三环北路北向),地名地址信息;交通地名;城市快速路出口,190308,[],116.45577219603818,39.943793530186575
BZDCPW02E1,东三环北路入口(东三环方向),地名地址信息;交通地名;城市快速路入口,190309,[],116.4557623138945,39.94261355290513
B000A9NSO3,顺源里8号楼,地名地址信息;门牌信息;楼栋号,190403,[],116.4498347910993,39.94853057870219
B0FFL51IRS,燕保祈东家园1号院6号楼,地名地址信息;门牌信息;楼栋号,190403,[],116.45681398425619,39.94753890692821
B0FFICTP24,三源里小区-三源里街18号楼,地名地址信息;门牌信息;楼栋号,190403,[],116.45045827561393,39.951074872651695
B0FFF3KAN5,牛王庙5号楼,地名地址信息;门牌信息;楼栋号,190403,[],116.45176407275,39.95135182119381
B000A8WSAD,燕莎,地名地址信息;热点地名;热点地名,190700,[],116.45731918091201,39.95070001796937
B0FFFDRWQD,麦子店,地名地址信息;热点地名;热点地名,190700,[],116.46324426729842,39.944700248393225
B0FFFALLTO,小亮马桥,地名地址信息;普通地名;村庄级地名,190108,[],116.45822614563215,39.95006627796093
B000A8WS8E,亮马桥,地名地址信息;热点地名;热点地名,190700,[],116.45728633730924,39.94863201858076
B0FFGZCDUK,燕莎东侧路,地名地址信息;交通地名;道路名,190301,[],116.4601174369559,39.94858306885842
B0FFGQ9AE1,亮马桥中街,地名地址信息;交通地名;道路名,190301,[],116.46511879551528,39.95116892025003
B0FFGQ78UZ,馆前北路,地名地址信息;交通地名;道路名,190301,[],116.4580466313952,39.941650164755615
B0FFGQ58MJ,广场北路,地名地址信息;交通地名;道路名,190301,[],116.45730925673435,39.94190333950238
BZDCPW027D,农展馆北路,地名地址信息;交通地名;道路名,190301,[],116.46200235274787,39.94287610286831
BZDCPW029W,亮马桥北街,地名地址信息;交通地名;道路名,190301,[],116.46019239536251,39.950857169190606
B0FFGQ920X,麦子店街,地名地址信息;交通地名;道路名,190301,[],116.46263314165951,39.94534363517131
B0HGVNM5YT,何子阳,地名地址信息;普通地名;村庄级地名,190108,[],116.46441440951973,39.943135375270245
B0FFKJ0PBQ,麦子店枣营北里社区,地名地址信息;普通地名;村庄级地名,190108,[],116.46351088720102,39.94689585766288
B0FFGBD3XR,伯宁花园B座,地名地址信息;门牌信息;楼栋号,190403,[],116.46709347529759,39.94402947548855
BZDCPW02HU,枣子营街,地名地址信息;交通地名;道路名,190301,[],116.4665408849296,39.94148909093207
BZDCPW02HT,麦子店西街,地名地址信息;交通地名;道路名,190301,[],116.45961311630289,39.946048897079464
B0FFGQA74W,枣营北桥,地名地址信息;交通地名;桥,190307,[],116.4643361056215,39.94344315702057
B0FFI00YFL,麦子店25号楼,地名地址信息;地名地址信息;地名地址信息,190000,[],116.46178378278725,39.94164658905343
B0FFI65OX3,光明公寓8号楼,地名地址信息;地名地址信息;地名地址信息,190000,[],116.46380265046835,39.948641552249015
B0FFKOI192,枣营南里社区24号楼,地名地址信息;地名地址信息;地名地址信息,190000,[],116.46595178887901,39.942047493392835
B000A9NZGL,枣营北里小区31号楼,地名地址信息;门牌信息;楼栋号,190403,[],116.46320386987017,39.946786061148465
B000A9NXZ9,枣营北里27号楼,地名地址信息;门牌信息;楼栋号,190403,[],116.46450121294936,39.947046450092934
B000A9NZGP,枣营北里37号楼,地名地址信息;门牌信息;楼栋号,190403,[],116.4641674540977,39.94408668821121
B0FFGGFGKM,湖滨路与馆北路交叉口,地名地址信息;交通地名;路口名,190302,[],116.45994770435246,39.942060896814525
B000A9NZGJ,枣营北里22号楼,地名地址信息;门牌信息;楼栋号,190403,[],116.46360134051109,39.94570914066306
B000A9O1E2,枣营北里2号楼,地名地址信息;门牌信息;楼栋号,190403,[],116.4672076543141,39.94575571517208
B0FFI8INFA,天泽路与麦子店街交叉口,地名地址信息;交通地名;路口名,190302,[],116.4622201790333,39.950017383792016
B0FFGGTRS1,广场北路与馆北路交叉口,地名地址信息;交通地名;路口名,190302,[],116.45754398090418,39.942058909567784
B0FFGGT4YU,亮马桥路与天泽路交叉口,地名地址信息;交通地名;路口名,190302,[],116.46220812602586,39.9501203486498
B0FFGGSBN3,馆前北路与馆北路交叉口,地名地址信息;交通地名;路口名,190302,[],116.45804557607232,39.942063145846404
B0FFI8KO2C,亮马桥路与麦子店街交叉口,地名地址信息;交通地名;路口名,190302,[],116.4622201790333,39.950017383792016
B0FFGGOWSI,东方东路与亮马桥路交叉口,地名地址信息;交通地名;路口名,190302,[],116.45842693614462,39.94888982200124
B000A9O1EA,枣营北里36号楼,地名地址信息;门牌信息;楼栋号,190403,[],116.4636556910511,39.94437433528718
B000A9O27M,枣营北里9号楼,地名地址信息;门牌信息;楼栋号,190403,[],116.46662972736048,39.94518918342116
B000A9O27D,枣营北里25号楼,地名地址信息;门牌信息;楼栋号,190403,[],116.46462674844318,39.94617381537583
B0FFI8KDIW,亮码食街与朝阳公园路交叉口,地名地址信息;交通地名;路口名,190302,[],116.46626412381714,39.947933096240085
B0FFI8GZTR,亮马桥路与朝阳公园路交叉口,地名地址信息;交通地名;路口名,190302,[],116.4651358830057,39.95093597465468
B0FFHPLL8F,亮马桥路与燕莎东侧路交叉口,地名地址信息;交通地名;路口名,190302,[],116.45993274793143,39.94928057514621
B0FFHPH1UP,麦子店街与麦子店西街交叉口,地名地址信息;交通地名;路口名,190302,[],116.4625024978843,39.94700023178395
B0FFHPGLY4,农展馆北路与广场北路交叉口,地名地址信息;交通地名;路口名,190302,[],116.45755194186073,39.94256990897792
B0FFGGVX3R,农展馆北路与麦子店街交叉口,地名地址信息;交通地名;路口名,190302,[],116.46277590475393,39.943063095086906
B0FFGGJK1J,东方东路与亮马桥北街交叉口,地名地址信息;交通地名;路口名,190302,[],116.45835847397369,39.95082057638673
B0FFGG8JDU,亮马桥中街与亮马桥路交叉口,地名地址信息;交通地名;路口名,190302,[],116.46514790718378,39.951070001264696
B000A9NXZF,枣营北里8号楼,地名地址信息;门牌信息;楼栋号,190403,[],116.46655451440071,39.94481899626318
B0FFGGEWYM,亮马桥中街与朝阳公园路交叉口,地名地址信息;交通地名;路口名,190302,[],116.46514790718378,39.951070001264696
B000A9O1EJ,枣营南里3号楼,地名地址信息;门牌信息;楼栋号,190403,[],116.46715682284564,39.94300668639091
B000A9NYZQ,枣营北里28号楼,地名地址信息;门牌信息;楼栋号,190403,[],116.46405570699476,39.9470292790397
B0FFFYIU4Q,麦子店街15号楼-二单元,地名地址信息;门牌信息;门牌信息,190400,[],116.46137835617662,39.94233752191453
B0FFH12JBR,朝阳公园西路15号楼,地名地址信息;门牌信息;楼栋号,190403,[],116.46699542460284,39.94172730230661
B000A9O26W,枣营北里21号楼,地名地址信息;门牌信息;楼栋号,190403,[],116.46361747352154,39.945082207494494
B000A9NY6J,伯宁花园6号楼,地名地址信息;门牌信息;楼栋号,190403,[],116.4671396150977,39.94418859348796
B000A9NXZB,枣营北里29号楼,地名地址信息;门牌信息;楼栋号,190403,[],116.46387109079603,39.94697279705492
B0FFHOU4P0,麦子店街小区13号楼,地名地址信息;门牌信息;楼栋号,190403,[],116.46111849377095,39.94238785558887
B000A9NZ9C,枣营南里社区6号楼,地名地址信息;门牌信息;楼栋号,190403,[],116.46666716594262,39.942721381035675
B000A9NXZH,枣营南里社区5号楼,地名地址信息;门牌信息;楼栋号,190403,[],116.46697625979841,39.94251321974487
B0FFG4VGGH,枣营北里34号楼,地名地址信息;门牌信息;楼栋号,190403,[],116.46299537699466,39.945147583004214
B0FFF56XUO,东方东路22号院10号楼,地名地址信息;门牌信息;楼栋号,190403,[],116.45911306252565,39.94951950689423
B0FFH89U26,枣营南里社区8号楼,地名地址信息;门牌信息;楼栋号,190403,[],116.46621048853696,39.94355412494992
B0FFH8LYY4,东方家园22号院4号楼,地名地址信息;门牌信息;楼栋号,190403,[],116.45848598124185,39.95003492370006
B0FFG1I0VJ,枣营北里18号楼,地名地址信息;门牌信息;楼栋号,190403,[],116.46447742319287,39.94472847852034
B0FFG93SDI,枣营北里33号楼,地名地址信息;门牌信息;楼栋号,190403,[],116.46286288351403,39.94554722305392
B0FFG4LVF3,枣营南里社区14号楼,地名地址信息;门牌信息;楼栋号,190403,[],116.46440841594001,39.94292236788253
B0FFG4VRY7,枣营南里社区19号楼,地名地址信息;门牌信息;楼栋号,190403,[],116.46504357576454,39.94290804553645
B0FFG4VOMA,枣营北里14号楼,地名地址信息;门牌信息;楼栋号,190403,[],116.46570062974732,39.944424730335996
B0FFG4VI4D,枣营南里25号楼,地名地址信息;门牌信息;楼栋号,190403,[],116.46607024980504,39.94161482667267
B0FFG4VG8J,枣营南里社区15号楼,地名地址信息;门牌信息;楼栋号,190403,[],116.4644847168427,39.94258558213557
B0FFJ0X5GE,全国农业展览馆1号楼,地名地址信息;门牌信息;楼栋号,190403,[],116.46024565921769,39.94218664475076
B0FFILDX75,麦子店街小区9号楼,地名地址信息;门牌信息;楼栋号,190403,[],116.46254919246266,39.942709521465886
B0FFIWX1BN,麦子店街小区1号楼,地名地址信息;门牌信息;楼栋号,190403,[],116.46282927495778,39.94153529384633
B0FFI9PY2A,麦子店小区15号楼,地名地址信息;门牌信息;楼栋号,190403,[],116.46151682635379,39.94223288073917
B0FFHLKO6A,麦子店街4号楼,地名地址信息;门牌信息;楼栋号,190403,[],116.4625129398776,39.943758386298846
B0FFHIHGI8,麦子店街22号楼,地名地址信息;门牌信息;楼栋号,190403,[],116.45957726339972,39.94395488934133
B0FFH14PXS,亮马桥路44号楼,地名地址信息;门牌信息;楼栋号,190403,[],116.46268785527207,39.94907763032058
B0FFH142DK,亮马桥路48号院5号楼,地名地址信息;门牌信息;楼栋号,190403,[],116.46184213051042,39.94837647425708
B0FFH13CZD,朝阳公园路1号楼,地名地址信息;门牌信息;楼栋号,190403,[],116.46496434933235,39.95053153631511
B0FFH1ZSKQ,麦子店小区6号楼,地名地址信息;门牌信息;楼栋号,190403,[],116.46223096750218,39.94402664696664
B0FFGSDYJX,枣营北里12号楼,地名地址信息;门牌信息;楼栋号,190403,[],116.46605876379463,39.94517565572258
B0FFGSDX7J,枣营南里13号楼,地名地址信息;门牌信息;楼栋号,190403,[],116.46589744482421,39.94330429888947
B0FFGSDWAG,东方东路22号院2号楼,地名地址信息;门牌信息;楼栋号,190403,[],116.45733536823079,39.94961910005458
B0FFGSDTTW,枣营北里26号楼,地名地址信息;门牌信息;楼栋号,190403,[],116.4641892141562,39.94658464715843
B0FFGSDQ9A,东方东路22号院9号楼,地名地址信息;门牌信息;楼栋号,190403,[],116.45733536823079,39.94961910005458
B0FFGSDKCD,东方东路22号院7号楼,地名地址信息;门牌信息;楼栋号,190403,[],116.45877092586346,39.94979664194534
B0FFGSDJVL,东方东路22号院5号楼,地名地址信息;门牌信息;楼栋号,190403,[],116.45875184276437,39.949969587617744
B0FFGTWZXM,枣营南里10号楼,地名地址信息;门牌信息;楼栋号,190403,[],116.46553318506369,39.94340132513245
B0FFG63NEJ,亮马桥路48号院2号楼,地名地址信息;门牌信息;楼栋号,190403,[],116.46062417535855,39.947923378837395
B0FFG63NEI,四季世家1号楼,地名地址信息;门牌信息;楼栋号,190403,[],116.4621772811918,39.94806934952587
B0FFG4LUWO,麦子店街20号楼,地名地址信息;门牌信息;楼栋号,190403,[],116.46070984668086,39.94481571871496
B0FFG4LSRV,麦子店街3号楼,地名地址信息;门牌信息;楼栋号,190403,[],116.46278408729374,39.94182716505733
B0FFG4LR5N,麦子店街16号楼,地名地址信息;门牌信息;楼栋号,190403,[],116.4610951950877,39.94415472648568
B0FFG4LOOY,枣营南里1号楼,地名地址信息;门牌信息;楼栋号,190403,[],116.46730023349139,39.94369504584507
B0FFG4LHVP,麦子店街小区11号楼,地名地址信息;门牌信息;楼栋号,190403,[],116.46210271208236,39.94266736968905
B0FFG4LHKO,麦子店街18号楼,地名地址信息;门牌信息;楼栋号,190403,[],116.46031063935577,39.94403173653488
B0FFG4LG42,麦子店街24号楼,地名地址信息;门牌信息;楼栋号,190403,[],116.45970562495506,39.94439019502341
B0FFG4L4NZ,枣营北里23号楼,地名地址信息;门牌信息;楼栋号,190403,[],116.46462178241042,39.945768818192846
B0FFG4L3A8,枣营北里35号楼,地名地址信息;门牌信息;楼栋号,190403,[],116.46298940824873,39.94473958353803
B0FFG4VHVD,麦子店街26号楼,地名地址信息;门牌信息;楼栋号,190403,[],116.45973655004167,39.94578421802199
B0FFG4V7YD,枣营北里13号楼,地名地址信息;门牌信息;楼栋号,190403,[],116.46559322272047,39.94473843215646
B0FFG4V255,枣营北里32号楼,地名地址信息;门牌信息;楼栋号,190403,[],116.46290490990076,39.9464562964661
B0FFG4V10Q,麦子店街5号楼,地名地址信息;门牌信息;楼栋号,190403,[],116.46251816526241,39.942102465093264
B0FFH1316Y,农业农村部北办公区24号楼,地名地址信息;门牌信息;楼栋号,190403,[],116.45967649448237,39.94467611047057
B0FFF8M398,枣营北里7号楼,地名地址信息;门牌信息;楼栋号,190403,[],116.46705734209857,39.94409437565193
B0FFFCWCAH,东方东路19号院1号楼,地名地址信息;门牌信息;楼栋号,190403,[],116.45788394506822,39.950930398082974
B0FFFCTODI,东方东路22号院1号楼,地名地址信息;门牌信息;楼栋号,190403,[],116.45881496668277,39.950597720293366
B0FFI9PYW7,麦子店街14号楼,地名地址信息;门牌信息;楼栋号,190403,[],116.46121362570436,39.94383004175757
B000A9O275,枣营北里24号楼,地名地址信息;门牌信息;楼栋号,190403,[],116.46356617523423,39.94608303405124
B0G2C57OEF,枣营南里1区16号楼,地名地址信息;门牌信息;楼栋号,190403,[],116.46729120243592,39.94369302156829
B0FFKEQV2K,麦子店街小区7号楼,地名地址信息;门牌信息;楼栋号,190403,[],116.46254522330901,39.94235852503121
B0FFK5YS6B,麦子店街小区19号楼,地名地址信息;门牌信息;楼栋号,190403,[],116.4618208859209,39.94180367822437
B0FFG4V3XD,亮马桥外交公寓A区9号楼,地名地址信息;门牌信息;楼栋号,190403,[],116.4597902156283,39.94982919433994
B0FFFYIUMT,麦子店街3号楼-2单元,地名地址信息;门牌信息;门牌信息,190400,[],116.46247807108607,39.94178837373795
B0FFFYITEI,麦子店街5号楼-1单元,地名地址信息;门牌信息;门牌信息,190400,[],116.46271080046095,39.942161961762594
B0FFFYISEI,麦子店街3号楼-4单元,地名地址信息;门牌信息;门牌信息,190400,[],116.46228140991201,39.94183986339026
B0FFI9PWLG,伯宁花园13号楼,地名地址信息;门牌信息;楼栋号,190403,[],116.46605880721151,39.94483066940797
B000A9NYZT,枣营北里30号楼,地名地址信息;门牌信息;楼栋号,190403,[],116.46343562352395,39.946980657805476
B0G1PCKHPE,亮马桥外交公寓A区3号楼,地名地址信息;门牌信息;楼栋号,190403,[],116.45872471382131,39.95030150702754
B0FFHEMOHU,亮马桥外交公寓B区1号楼,地名地址信息;门牌信息;楼栋号,190403,[],116.4576502310834,39.95069683130301
B0FFG4VW8U,麦子店枣营北里社区19号楼,地名地址信息;门牌信息;楼栋号,190403,[],116.46505834378405,39.9451579960594
B0FFFYITZV,枣营南里14号楼-二单元,地名地址信息;门牌信息;楼栋号,190403,[],116.46427295848189,39.94291201182771
B000A9O0I5,枣营南里社区23号楼,地名地址信息;门牌信息;楼栋号,190403,[],116.46561869682856,39.94165362147528
B000A9O0I1,枣营南里社区18号楼,地名地址信息;门牌信息;楼栋号,190403,[],116.46452096347538,39.94159971654818
B000A9NZ80,枣营北里20号楼,地名地址信息;门牌信息;楼栋号,190403,[],116.46420341834242,39.94534073338169
B0FFHQ7VL4,农业农村部北区家属院宿舍3号楼,地名地址信息;门牌信息;楼栋号,190403,[],116.46114139307373,39.94378885884575
B0FFHQ7TF1,农业农村部北区家属院宿舍1号楼,地名地址信息;门牌信息;楼栋号,190403,[],116.46140332155282,39.943268549124426
B0FFHQ7S2W,农业农村部北区家属院宿舍2号楼,地名地址信息;门牌信息;楼栋号,190403,[],116.46128590388315,39.94351123909725
B000A9NZ86,枣营南里社区22号楼,地名地址信息;门牌信息;楼栋号,190403,[],116.46557751567141,39.941974499265285
B0FFG4VSMS,农业农村部北区家属院宿舍10号楼,地名地址信息;门牌信息;楼栋号,190403,[],116.46114248336544,39.94309888881337
B000A9NZ02,枣营南里社区21号楼,地名地址信息;门牌信息;楼栋号,190403,[],116.46549318426219,39.9423172615288
B0FFF3L5M1,枣营南里社区16号楼,地名地址信息;门牌信息;楼栋号,190403,[],116.46439144603437,39.94222435072394
B0FFF3K83G,枣营南里社区7号楼,地名地址信息;门牌信息;楼栋号,190403,[],116.46628578220889,39.94327733722552
B0FFF3K83F,枣营南里社区20号楼,地名地址信息;门牌信息;楼栋号,190403,[],116.4654188892139,39.94264505120363
B0FFF3L5M8,枣营南里9号楼,地名地址信息;门牌信息;楼栋号,190403,[],116.46598075534574,39.9431075288908
B0FFF3K8AM,枣营北里17号楼,地名地址信息;门牌信息;楼栋号,190403,[],116.46536446081811,39.944577830543835
B0FFF3K835,枣营北里16号楼,地名地址信息;门牌信息;楼栋号,190403,[],116.46542469303813,39.94436699879325
B000A9NYZZ,枣营南里社区17号楼,地名地址信息;门牌信息;楼栋号,190403,[],116.4644516938613,39.94187652310416
B000A9NY13,成园公寓11号楼,地名地址信息;门牌信息;楼栋号,190403,[],116.46640185792607,39.94585954630406
B000A9NY11,成苑公寓10号楼,地名地址信息;门牌信息;楼栋号,190403,[],116.4668464347073,39.94551475250159
B0FFFQ6VEL,亮马河,地名地址信息;自然地名;河流,190204,[],116.46917106722195,39.949253909289226
B0FFHOL23M,SOLANA蓝色港湾1号楼,地名地址信息;门牌信息;楼栋号,190403,[],116.46915011374668,39.9482948896006
B0FFGQ5CAM,亮马食街,地名地址信息;交通地名;道路名,190301,[],116.46765091782832,39.94794782578818
B0FFGQ5AEO,亮码头酒吧街,地名地址信息;交通地名;道路名,190301,[],116.47133971979756,39.94942987918757
B0FFHOL23N,蓝色港湾国际商区2号楼,地名地址信息;门牌信息;楼栋号,190403,[],116.47042366590601,39.947824406710374
B0FFGQ8Q8J,品牌街,地名地址信息;交通地名;道路名,190301,[],116.46905690091234,39.9473806706489
B0FFI8HS3W,朝阳公园路与枣子营街交叉口,地名地址信息;交通地名;路口名,190302,[],116.46826084590396,39.941537731342706
B0FFI8GTQT,农展馆北路与朝阳公园路交叉口,地名地址信息;交通地名;路口名,190302,[],116.46812907201803,39.9440442746962
B000A9DPZW,枣营南里社区4号楼,地名地址信息;门牌信息;楼栋号,190403,[],116.46789546447398,39.942395706130014
B000AACE6W,水碓湖,地名地址信息;自然地名;湖泊,190205,[],116.47507131326338,39.94820440622307
B000A9DPZJ,枣营南里2号楼,地名地址信息;门牌信息;楼栋号,190403,[],116.46787330676203,39.943038620756504
B0FFH13ZGF,朝阳公园路6号院16号楼,地名地址信息;门牌信息;楼栋号,190403,[],116.47226215054465,39.948353489846696
B0FFGSDTC1,枣营南里1区11号楼,地名地址信息;门牌信息;楼栋号,190403,[],116.46743469684819,39.943719407732424
B0FFGU2GNL,枣营南里1区14号楼,地名地址信息;门牌信息;楼栋号,190403,[],116.46731829460242,39.94370709408605
B0FFGTVWJE,枣营南里1区13号楼,地名地址信息;门牌信息;楼栋号,190403,[],116.4673544198684,39.94370719154191
B0FFG4V4NM,北京东苑公寓19号楼,地名地址信息;门牌信息;楼栋号,190403,[],116.47197699001069,39.94946965045279
B0FFF8MNED,朝阳公园路6号院2号楼,地名地址信息;门牌信息;楼栋号,190403,[],116.47089630368427,39.94813770065374
B0FFF8M396,枣营北里5号楼,地名地址信息;门牌信息;楼栋号,190403,[],116.46749886479738,39.944156563811305
B0FFF7V9PA,朝阳公园路6号院9号楼,地名地址信息;门牌信息;楼栋号,190403,[],116.47028417059008,39.94783502156584
B0FFF8NNW7,朝阳公园路6号院18号楼,地名地址信息;门牌信息;楼栋号,190403,[],116.4720021434208,39.94896274045394
B0FFF8XZKM,朝阳公园路6号院11号楼,地名地址信息;门牌信息;楼栋号,190403,[],116.47024807792026,39.94755493307556
B0G3DMZRH3,朝阳公园路6号院17号楼,地名地址信息;门牌信息;楼栋号,190403,[],116.47201021345424,39.94863377585714
B0FFF3K7W0,枣营北里4号楼,地名地址信息;门牌信息;楼栋号,190403,[],116.46747467076331,39.94503446392175
B000AAD2KA,蓝色港湾17号楼,地名地址信息;门牌信息;楼栋号,190403,[],116.47226215054465,39.948353489846696
B0FFFAA6ZL,双新桥,地名地址信息;交通地名;立交桥,190306,[],116.4837170395395,39.94252865444094
B000A10462,四路居,地名地址信息;普通地名;村庄级地名,190108,[],116.48642094880618,39.944758546155605
BZDCPW02CS,姚家园北路,地名地址信息;交通地名;道路名,190301,[],116.48568427427105,39.94390340063516
B0FFIZVWXI,东山墅53号楼,地名地址信息;地名地址信息;地名地址信息,190000,[],116.4858269250738,39.95103854218597
B0FFKC0AP0,东山墅32号楼,地名地址信息;地名地址信息;地名地址信息,190000,[],116.48688188588878,39.95123165732602
B0FFI8LV34,东四环北路与姚家园北路交叉口,地名地址信息;交通地名;路口名,190302,[],116.4837158684943,39.943867598248254
B0FFI8H2Z5,农展馆北路与姚家园北路交叉口,地名地址信息;交通地名;路口名,190302,[],116.48351712260079,39.943864014096874
B0FFI8KHV4,东四环北路辅路与姚家园北路交叉口,地名地址信息;交通地名;路口名,190302,[],116.48351712260079,39.943864014096874
B0FFH14YKR,东四环北路辅路与农展馆北路交叉口,地名地址信息;交通地名;路口名,190302,[],116.48353525327157,39.94336108719006
B0FFGGRTNU,东四环北路与东四环北路出口交叉口,地名地址信息;交通地名;路口名,190302,[],116.4836941279939,39.94916032639479
B0FFGGNHXB,东四环北路与东四环北路出口交叉口,地名地址信息;交通地名;路口名,190302,[],116.48395547646123,39.94621621074564
B0FFHPO0G7,东四环北路出口与东四环北路辅路交叉口,地名地址信息;交通地名;路口名,190302,[],116.48415215816577,39.94667977147313
B0FFHPNYAJ,东四环北路出口与东四环北路辅路交叉口,地名地址信息;交通地名;路口名,190302,[],116.48351051658697,39.94853281123152
B0FFHPKVPF,东四环北路入口与东四环北路辅路交叉口,地名地址信息;交通地名;路口名,190302,[],116.48392472870184,39.95129492103723
B0FFLL33R7,东四环北路与加油站交叉口,地名地址信息;交通地名;路口名,190302,[],116.48371795217962,39.951291312922415
B0FFLL33Q0,东四环北路与加油站交叉口,地名地址信息;交通地名;路口名,190302,[],116.48387874474594,39.94977784519888
B0FFFCUAHN,东山墅小区12号楼,地名地址信息;门牌信息;楼栋号,190403,[],116.48696541262368,39.94953497136315
B0FFFCUA2F,东山墅小区7号楼,地名地址信息;门牌信息;楼栋号,190403,[],116.48594456365835,39.94947395137824
B0FFGSDSPK,东山墅8号楼,地名地址信息;门牌信息;楼栋号,190403,[],116.48621657957803,39.949562752605175
B0FFGSDP7J,东山墅4号楼,地名地址信息;门牌信息;楼栋号,190403,[],116.48632603693945,39.949209090416915
B0FFGSDO17,东山墅5号楼,地名地址信息;门牌信息;楼栋号,190403,[],116.48613531303556,39.9492385248571
B0FFGSDIOA,东山墅9号楼,地名地址信息;门牌信息;楼栋号,190403,[],116.4863892276027,39.94959526232322
B0FFFCU9U0,东山墅小区6号楼,地名地址信息;门牌信息;楼栋号,190403,[],116.48596365860925,39.94929001506423
B0FFFCU9DO,东山墅11号楼,地名地址信息;门牌信息;楼栋号,190403,[],116.4868880992179,39.949704735587794
B0FFM9T0WD,东山墅55号楼,地名地址信息;门牌信息;楼栋号,190403,[],116.48595244952224,39.95063092934437
B0FFL4E9QU,东山墅51号楼,地名地址信息;门牌信息;楼栋号,190403,[],116.48578875405425,39.951255420833974
B0FFGQB0X2,东风南路出口(东四环北路北向),地名地址信息;交通地名;城市快速路出口,190308,[],116.4840568337733,39.94640650157825
B0FFGQ9HFV,朝阳公园出口(东四环北路南向),地名地址信息;交通地名;城市快速路出口,190308,[],116.48357672082773,39.948888991852705
B000A88H4O,东四环北路入口(东四环北路方向),地名地址信息;交通地名;城市快速路入口,190309,[],116.48381329603774,39.951406588826096
B000A7ZY2H,辛庄村,地名地址信息;普通地名;村庄级地名,190108,[],116.49015310465343,39.94457463848866
B000AA9IZ2,东风乡,地名地址信息;普通地名;乡镇级地名,190106,[],116.49367036937137,39.94527209881543
BZDCPW025O,南十里居路,地名地址信息;交通地名;道路名,190301,[],116.4903591926687,39.95016503275009
BZDCPW0245,星火西路,地名地址信息;交通地名;道路名,190301,[],116.4953288258876,39.94394809942723
B0FFLKZAEK,姚家园北路与星火西路交叉口,地名地址信息;交通地名;路口名,190302,[],116.49531465923408,39.94486002126767
B0FFI8HR1I,南十里居路与姚家园北路交叉口,地名地址信息;交通地名;路口名,190302,[],116.49091002026432,39.94422490714789
B0FFFCUA8A,东山墅76号楼,地名地址信息;门牌信息;楼栋号,190403,[],116.48797315565605,39.95009793875442
B0FFGSDTRO,东山墅81号楼,地名地址信息;门牌信息;楼栋号,190403,[],116.48887352893172,39.950400602105894
B0FFGSDTNM,东山墅78号楼,地名地址信息;门牌信息;楼栋号,190403,[],116.48849311411215,39.950185479789
B0FFGSDKOJ,东山墅84号楼,地名地址信息;门牌信息;楼栋号,190403,[],116.48805844040756,39.95040517994879
B0FFGSDJG7,东山墅79号楼,地名地址信息;门牌信息;楼栋号,190403,[],116.48875710812021,39.950236262430764
B0FFFCU9XQ,东山墅小区85号楼,地名地址信息;门牌信息;楼栋号,190403,[],116.4881216963271,39.950273372965995
B0FFFCU9WI,东山墅小区83号楼,地名地址信息;门牌信息;楼栋号,190403,[],116.48840172481259,39.95053219464684
B0GK3CT3OZ,东山墅58号楼,地名地址信息;门牌信息;楼栋号,190403,[],116.48916450127368,39.951452426185064
B0FFLMC91H,东山墅小区58号楼,地名地址信息;门牌信息;楼栋号,190403,[],116.4890550913772,39.9514131023192
BZDCPX00IH,朝阳站东路,地名地址信息;交通地名;道路名,190301,[],116.50613623983097,39.94528205213106
BZDCPX00IF,朝阳站西路,地名地址信息;交通地名;道路名,190301,[],116.50134409940074,39.94752885420643
B0FFKP0NGO,上东十号2号楼,地名地址信息;地名地址信息;地名地址信息,190000,[],116.50056899704522,39.949062496519886
B0FFKWC0XD,上东10号6号楼,地名地址信息;地名地址信息;地名地址信息,190000,[],116.49927709490933,39.94935164885303
B0FFHQ7S6S,姚家园西里7号院7号楼,地名地址信息;地名地址信息;地名地址信息,190000,[],116.50655712891714,39.942568388741314
B0FFI8L1PM,东坝路与星火东路交叉口,地名地址信息;交通地名;路口名,190302,[],116.50601181493022,39.94499669950598
B0FFIEU302,上东十号4号楼,地名地址信息;门牌信息;楼栋号,190403,[],116.50152350034406,39.949734298892636
B0FFI8KD20,姚家园北路与星火东路交叉口,地名地址信息;交通地名;路口名,190302,[],116.50610132488549,39.943545018464164
B000A9O59T,姚家园西里3号院8号楼,地名地址信息;门牌信息;楼栋号,190403,[],116.50659300717457,39.944630412192254
B0FFGGVP5L,星火东路与驼房营南路交叉口,地名地址信息;交通地名;路口名,190302,[],116.50535480744809,39.94965459268623
B0FFI8K66P,姚家园北一路与星火东路交叉口,地名地址信息;交通地名;路口名,190302,[],116.505995593808,39.94630360063786
B0FFI8GBTF,姚家园北二路与星火东路交叉口,地名地址信息;交通地名;路口名,190302,[],116.5054984735324,39.94857205619449
B000A9QE9K,姚家园西里2号院9号楼,地名地址信息;门牌信息;楼栋号,190403,[],116.50673124742119,39.946818729529
B0FFF2JBO0,姚家园西里2号院8号楼,地名地址信息;门牌信息;楼栋号,190403,[],116.50672615604886,39.94740769152506
B0FFFSP23T,姚家园西里2号院3号楼,地名地址信息;门牌信息;楼栋号,190403,[],116.50662171608866,39.94785136930989
B0FFGBC12X,上东10号7号楼,地名地址信息;门牌信息;楼栋号,190403,[],116.50062892074051,39.95150357851585
B0FFF8Z91V,姚家园西里2号院2号楼,地名地址信息;门牌信息;楼栋号,190403,[],116.50657348067098,39.94831721021064
B0FFF8PVBN,姚家园西里7号院2号楼,地名地址信息;门牌信息;楼栋号,190403,[],116.5069043338017,39.94318137759108
B0FFFCZS51,姚家园西里9号院1号楼,地名地址信息;门牌信息;楼栋号,190403,[],116.50577231703213,39.94184712289199
B0FFI9PWGG,姚家园西里3号院12号楼,地名地址信息;门牌信息;楼栋号,190403,[],116.5067185644701,39.94386680870859
B0FFI9PWAB,姚家园小区西区-11号楼,地名地址信息;门牌信息;楼栋号,190403,[],116.50684799370123,39.94425617092872
B0FFILHFZV,姚家园西里甲7号院3号楼,地名地址信息;门牌信息;楼栋号,190403,[],116.50672681572979,39.94207490346954
B0G2CC937S,姚家园小区西区-2号楼,地名地址信息;门牌信息;楼栋号,190403,[],116.50689495332215,39.945988239687914
B0FFJ3KEPZ,上东10号5号楼,地名地址信息;门牌信息;楼栋号,190403,[],116.50198129323879,39.94911967775876
B0FFF8JZPB,姚家园西里甲7号院1号楼,地名地址信息;门牌信息;楼栋号,190403,[],116.50647394082357,39.94160318395118
B0FFG4V0B1,金隅凤麟洲西区9号院1号楼,地名地址信息;门牌信息;楼栋号,190403,[],116.50540495694432,39.94184104713366
B000A9O2V3,姚家园西里3号院7号楼,地名地址信息;门牌信息;楼栋号,190403,[],116.50653874074348,39.94516723263213
B000A9O2UV,姚家园西里3号院3号楼,地名地址信息;门牌信息;楼栋号,190403,[],116.50655073929539,39.94553825306073
B0FFH6JKVS,青年北路,地名地址信息;交通地名;道路名,190301,[],116.51108499722892,39.94803127543935
B0FFH6JDSL,姚家园北一路,地名地址信息;交通地名;道路名,190301,[],116.51318075640218,39.94613532280048
BZDCPX00DE,姚家园西里中路,地名地址信息;交通地名;道路名,190301,[],116.50844060370308,39.9462087250376
BZDCPX00DB,姚家园北二路,地名地址信息;交通地名;道路名,190301,[],116.51153655367085,39.94862254449389
B0GKAKVHDN,姚家园东社区,地名地址信息;普通地名;村庄级地名,190108,[],116.51287851539556,39.94744741383681
B0FFGBC52K,姚家园产业园C座,地名地址信息;门牌信息;楼栋号,190403,[],116.51464923545275,39.944002551926694
BZDCPX00GR,姚家园东里中路,地名地址信息;交通地名;道路名,190301,[],116.51400486251997,39.94473270851274
B0FFI8LXXH,东坝路与青年北路交叉口,地名地址信息;交通地名;路口名,190302,[],116.5112093264417,39.94900459329854
B0FFI8L5EI,姚家园北路与青年北路交叉口,地名地址信息;交通地名;路口名,190302,[],116.51114578539531,39.943409631491214
B0FFI8LDOB,姚家园北二路与青年北路交叉口,地名地址信息;交通地名;路口名,190302,[],116.5111772496504,39.94868751390092
B0FFI8H3ZV,姚家园北一路与青年北路交叉口,地名地址信息;交通地名;路口名,190302,[],116.51110428973084,39.94622040191014
B000A9O2E7,姚家园西里5号院9号楼,地名地址信息;门牌信息;楼栋号,190403,[],116.50910322636301,39.94457770742379
B0FFI8GW99,姚家园北路与姚家园西里中路交叉口,地名地址信息;交通地名;路口名,190302,[],116.50841886342297,39.943453770509045
B000A9O59V,姚家园西里5号院6号楼,地名地址信息;门牌信息;楼栋号,190403,[],116.51048514393662,39.94545465573906
B0FFI8GPC6,姚家园北一路与姚家园西里中路交叉口,地名地址信息;交通地名;路口名,190302,[],116.5084405894872,39.94632372047318
B0FFGQD8UU,姚家园北二路与姚家园西里中路交叉口,地名地址信息;交通地名;路口名,190302,[],116.50846539501615,39.94863970135543
B000A9O1QO,姚家园西里3号院9号楼,地名地址信息;门牌信息;楼栋号,190403,[],116.50789278526526,39.944671195809306
B000A9QI33,姚家园东里8号院3号楼,地名地址信息;门牌信息;楼栋号,190403,[],116.51140523869165,39.94733521957397
B000A9O1QX,姚家园西里5号院7号楼,地名地址信息;门牌信息;楼栋号,190403,[],116.51075417023166,39.945031444868846
B0FFIL1YJS,姚家园东里7号院1号楼,地名地址信息;门牌信息;楼栋号,190403,[],116.51313969121807,39.945473232457196
B0FFICVI5D,姚家园东里7号院3号楼,地名地址信息;门牌信息;楼栋号,190403,[],116.5136114443599,39.944891591044644
B0FFICT5S4,姚家园东里7号院5号楼,地名地址信息;门牌信息;楼栋号,190403,[],116.51317893404406,39.94463737662086
B0FFITJN59,姚家园小区B3号楼,地名地址信息;门牌信息;楼栋号,190403,[],116.50901094127767,39.94415745714796
B0FFI9PYNZ,姚家园小区西区-1号楼,地名地址信息;门牌信息;楼栋号,190403,[],116.50778824353033,39.945953841556616
B0FFHUWLT6,姚家园东里7号院6号楼,地名地址信息;门牌信息;楼栋号,190403,[],116.51157518316617,39.94463681169355
B000A9O27I,姚家园西里5号院1号楼,地名地址信息;门牌信息;楼栋号,190403,[],116.51054430177834,39.94591380761321
B0FFF84TGG,姚家园西里5-2号,地名地址信息;门牌信息;楼栋号,190403,[],116.51005352022361,39.94592439590124
B0FFGZSFIL,姚家园西里1号院1号楼,地名地址信息;门牌信息;楼栋号,190403,[],116.51065446975466,39.94779105015175
B0FFH9RVTP,御翠·尚府3号楼,地名地址信息;门牌信息;楼栋号,190403,[],116.51480701558486,39.94219106671179
B0FFH4VQW0,姚家园东里7号院9号楼,地名地址信息;门牌信息;楼栋号,190403,[],116.51307769557903,39.943637129025596
B0FFFR10F9,姚家园西里1号院2号楼,地名地址信息;门牌信息;楼栋号,190403,[],116.5100251280915,39.94827222185307
B0FFGCBJUI,姚家园西里7号院1号楼,地名地址信息;门牌信息;楼栋号,190403,[],116.50775346348134,39.943131851627676
B000A9QLH0,姚家园西里1号院12号楼,地名地址信息;门牌信息;楼栋号,190403,[],116.51023910143437,39.946675900370224
B0FFGBC6VD,姚家园东里7号院2号楼,地名地址信息;门牌信息;楼栋号,190403,[],116.51196848864075,39.945529899536076
B0FFG4LD5Q,姚家园小区B7号楼,地名地址信息;门牌信息;楼栋号,190403,[],116.50928881470116,39.9452972153837
B0FFG4L8CN,姚家园小区B4号楼,地名地址信息;门牌信息;楼栋号,190403,[],116.51038290517387,39.94438340411258
B0FFG4L87S,姚家园小区13号楼,地名地址信息;门牌信息;楼栋号,190403,[],116.50770219441824,39.94378767673213
B0FFG4L1PM,姚家园小区B6号楼,地名地址信息;门牌信息;楼栋号,190403,[],116.51047218447013,39.9447436465015
B0FFG4VTQ3,姚家园西里5号院2号楼,地名地址信息;门牌信息;楼栋号,190403,[],116.50948746638903,39.94588376586713
B0FFG4VTP5,姚家园西里5号院3号楼,地名地址信息;门牌信息;楼栋号,190403,[],116.50880998844134,39.945934805771664
B0FFG4VQKA,姚家园西里1号院7号楼,地名地址信息;门牌信息;楼栋号,190403,[],116.51018982107028,39.94750072617536
B0FFF8NLMC,姚家园西里1号院8号楼,地名地址信息;门牌信息;楼栋号,190403,[],116.51002826998241,39.947212272553536
B0FFF8MQI9,姚家园东里8号院1号楼,地名地址信息;门牌信息;楼栋号,190403,[],116.51315038676987,39.94826015315969
B0FFF8JZ4V,姚家园产业园B座,地名地址信息;门牌信息;楼栋号,190403,[],116.5147395010584,39.944437788422306
B0FFF7T7V8,姚家园东里8号院7号楼,地名地址信息;门牌信息;楼栋号,190403,[],116.51283348878076,39.94635432898354
B0FFF7R33G,姚家园东里8号院5号楼,地名地址信息;门牌信息;楼栋号,190403,[],116.51361314584315,39.94736949833518
B0FFFCSSNU,姚家园东里9号楼,地名地址信息;门牌信息;楼栋号,190403,[],116.51174350926972,39.94691320299122
B0FFF8KHI6,姚家园西里5号院16号楼,地名地址信息;门牌信息;楼栋号,190403,[],116.50897485596124,39.943780367645054
B0FFI9PVRH,姚家园西里3号院10号楼,地名地址信息;门牌信息;楼栋号,190403,[],116.50780050003976,39.9442369447704
B0FFHXCN6C,御翠·尚府12号院1号楼,地名地址信息;门牌信息;楼栋号,190403,[],116.51488419437469,39.94295425325814
B0FFH4VQVZ,姚家园东里7号院10号楼,地名地址信息;门牌信息;楼栋号,190403,[],116.5121383098612,39.943813451365706
B000A9O27A,姚家园西里1号院11号楼,地名地址信息;门牌信息;楼栋号,190403,[],116.50882695808565,39.94668482538564
B0FFF8ZAZG,姚家园西里5号院12号楼,地名地址信息;门牌信息;楼栋号,190403,[],116.51025546898276,39.94417204601745
B0FFF874SU,姚家园西里5号院17号楼,地名地址信息;门牌信息;楼栋号,190403,[],116.51039201646829,39.9437474553683
B0FFF7VSAG,姚家园西里5号院13号楼,地名地址信息;门牌信息;楼栋号,190403,[],116.50912937347088,39.94415779955074
B0FFL9BK38,姚家园东里5号院1号楼,地名地址信息;门牌信息;楼栋号,190403,[],116.51609142408203,39.94307562464451
B0FFH8A08C,姚家园东里中路14号院1号楼,地名地址信息;门牌信息;楼栋号,190403,[],116.51456009366012,39.942590357022546
B000A9O2DN,姚家园西里1号院5号楼,地名地址信息;门牌信息;楼栋号,190403,[],116.50891313545281,39.94780103087862
B000A9O3ZF,姚家园西里3号院5号楼,地名地址信息;门牌信息;楼栋号,190403,[],116.50780435132165,39.94555890390852
B000A9O59Y,姚家园西里5号院8号楼,地名地址信息;门牌信息;楼栋号,190403,[],116.5092316326866,39.94508205866137
B000A9O4IB,姚家园西里5号院10号楼,地名地址信息;门牌信息;楼栋号,190403,[],116.51074017261315,39.944600421678295
B000A9O2UH,姚家园西里2号院10号楼,地名地址信息;门牌信息;楼栋号,190403,[],116.50791261608721,39.94663517613122
B000A9O4IE,姚家园西里5号院5号楼,地名地址信息;门牌信息;楼栋号,190403,[],116.50912419216984,39.94547673262983
B0FFF3K7MK,姚家园西里2号院1号楼,地名地址信息;门牌信息;楼栋号,190403,[],116.50797966494592,39.94823530798801
B0FFF3K9EI,姚家园西里1号院3号楼,地名地址信息;门牌信息;楼栋号,190403,[],116.5089773101937,39.94828519749853
B0FFF3K7MJ,姚家园西里2号院6号楼,地名地址信息;门牌信息;楼栋号,190403,[],116.50805808583708,39.947153578199774
B000A9O3ZI,姚家园西里3号院6号楼,地名地址信息;门牌信息;楼栋号,190403,[],116.50784454924927,39.94515003681134
B000A9QEI2,姚家园东里8号院2号楼,地名地址信息;门牌信息;楼栋号,190403,[],116.51160482865912,39.948386748900035
B000A9O4L1,姚家园西里2号院5号楼,地名地址信息;门牌信息;楼栋号,190403,[],116.50803492304573,39.947785486116985
B000A9O2DU,姚家园西里1号院9号楼,地名地址信息;门牌信息;楼栋号,190403,[],116.50919723637342,39.94728187273489
BZDCPW028I,砖角楼胡同,地名地址信息;交通地名;道路名,190301,[],116.42403316738704,39.95289921250145
B0HBASNBAQ,禾木园,地名地址信息;普通地名;村庄级地名|生活服务;洗浴推拿场所;洗浴推拿场所|购物服务;购物相关场所;购物相关场所,190108|071400|060000,[],116.42504185723219,39.96066217202031
B0GK1YX0IA,光熙家园社区,地名地址信息;普通地名;村庄级地名,190108,[],116.42618588041633,39.960239675769735
B0FFGZCBX1,交林夹道,地名地址信息;交通地名;道路名,190301,[],116.42502361401714,39.954472392105416
B0FFGZCE0T,民旺北胡同,地名地址信息;交通地名;道路名,190301,[],116.42223842586507,39.95206210370814
B0FFGQ9C6X,砖角楼胡同,地名地址信息;交通地名;道路名,190301,[],116.42067598271308,39.952906320004445
B0FFGZCDH3,和平里7区,地名地址信息;交通地名;道路名,190301,[],116.41771622799453,39.95840408132326
B0FFGQ8IOL,交林夹道,地名地址信息;交通地名;道路名,190301,[],116.42009777175362,39.95589558173086
B0FFGQ7E1I,和平里东街,地名地址信息;交通地名;道路名,190301,[],116.41906151217063,39.954466562147005
B0FFI6HBKQ,砖角楼社区,地名地址信息;普通地名;村庄级地名,190108,[],116.42404190465818,39.95507613772061
B0FFGQ7EVA,和平里北街,地名地址信息;交通地名;道路名,190301,[],116.42229576365526,39.95795693824817
B0FFI2LXFN,十三区26号楼,地名地址信息;地名地址信息;地名地址信息,190000,[],116.42324986099209,39.96108293883498
B0FFIT9DTG,柳芳北街5号院6号楼,地名地址信息;地名地址信息;地名地址信息,190000,[],116.42524730264321,39.95990046493523
B0FFJBZRJL,远东创业园15号楼,地名地址信息;地名地址信息;地名地址信息,190000,[],116.4235539527642,39.95633249208313
B0FFJSPUMV,和平街10区25号楼,地名地址信息;地名地址信息;地名地址信息,190000,[],116.417771972931,39.9609690336893
B0FFKAYPL2,砖角楼北里甲6号楼,地名地址信息;地名地址信息;地名地址信息,190000,[],116.4245818070199,39.95498981280671
B0FFKV9EU4,民旺园10号楼,地名地址信息;地名地址信息;地名地址信息,190000,[],116.42157536973592,39.952443332844105
B0FFHVE235,汪族墅屋,地名地址信息;普通地名;村庄级地名,190108,[],116.41854210838515,39.95998882349823
B000AA86PC,交林夹道甲2号楼,地名地址信息;地名地址信息;地名地址信息,190000,[],116.42172702727225,39.95692632781861
B000A9NR5G,和平里6区8号楼,地名地址信息;门牌信息;楼栋号,190403,[],116.41856277126493,39.9550030401559
B0FFH13DH6,和平街13区35号楼,地名地址信息;门牌信息;楼栋号,190403,[],116.41940013070631,39.96110664724083
B000A9NNWZ,民旺园32号楼,地名地址信息;门牌信息;楼栋号,190403,[],116.41996410605894,39.951784601950564
B0FFGG8J8W,民旺三巷与民旺胡同交叉口,地名地址信息;交通地名;路口名,190302,[],116.42156440254377,39.95205633571797
B0FFHPJXL9,民旺中巷与民旺胡同交叉口,地名地址信息;交通地名;路口名,190302,[],116.42054289990051,39.95204320976913
B0FFI8OUGY,和平里东街与民旺胡同交叉口,地名地址信息;交通地名;路口名,190302,[],116.4190407949038,39.952025637104455
B0FFI8KY4H,和平里东街与青年沟路交叉口,地名地址信息;交通地名;路口名,190302,[],116.41870922815653,39.96080395786816
B0FFGGWAJ5,交林夹道与和平里东街交叉口,地名地址信息;交通地名;路口名,190302,[],116.41895617329955,39.95600239504982
B0FFGGQNM9,民旺北胡同与民旺胡同交叉口,地名地址信息;交通地名;路口名,190302,[],116.42156440254377,39.95205633571797
B0FFGGLCDZ,交林夹道与和平里中街交叉口,地名地址信息;交通地名;路口名,190302,[],116.41895617329955,39.95600239504982
B0FFGGKM9U,民旺三巷与民旺北胡同交叉口,地名地址信息;交通地名;路口名,190302,[],116.42156440254377,39.95205633571797
B0FFGG8TVC,交林夹道与砖角楼胡同交叉口,地名地址信息;交通地名;路口名,190302,[],116.42270804737105,39.952900617676235
B0FFITOBP8,和平街13区20号楼,地名地址信息;门牌信息;楼栋号,190403,[],116.42283123738162,39.96077945293196
B0FFI8HX8T,东土城路与柳芳北街交叉口,地名地址信息;交通地名;路口名,190302,[],116.42562817984134,39.958131026763574
B0FFHPI300,东土城路与交林夹道交叉口,地名地址信息;交通地名;路口名,190302,[],116.42603734827314,39.954520704335
B0FFLKZ7EF,东土城路与和平里北街交叉口,地名地址信息;交通地名;路口名,190302,[],116.42562115591521,39.958224013974224
B000A9NQE9,和平里六区19号楼,地名地址信息;门牌信息;楼栋号,190403,[],116.41817742985675,39.953678712743915
B0FFI8L5AL,和平里东街与和平里北街交叉口,地名地址信息;交通地名;路口名,190302,[],116.4187806719769,39.95807513682845
B0FFI8KW59,和平里东街与和平里中街交叉口,地名地址信息;交通地名;路口名,190302,[],116.41888207281268,39.956003320242445
B0FFI8KCGK,和平里南街与砖角楼胡同交叉口,地名地址信息;交通地名;路口名,190302,[],116.41895658125334,39.95280452120389
B0FFI8IFS2,和平里东街与砖角楼胡同交叉口,地名地址信息;交通地名;路口名,190302,[],116.41895658125334,39.95280452120389
B0FFI8IENQ,和平里七区与和平里北街交叉口,地名地址信息;交通地名;路口名,190302,[],116.417717274202,39.958052096173674
B0FFI8HF0R,和平里东街与和平里南街交叉口,地名地址信息;交通地名;路口名,190302,[],116.41895658125334,39.95280452120389
B0FFGGVYT3,民旺北胡同与砖角楼胡同交叉口,地名地址信息;交通地名;路口名,190302,[],116.42309966420582,39.95289808117754
B0FFK4OQYN,和平里13区20号楼,地名地址信息;门牌信息;楼栋号,190403,[],116.42357942748109,39.960781347983655
B0FFI8HY5B,和平里北街与柳芳北街交叉口,地名地址信息;交通地名;路口名,190302,[],116.42562817984134,39.958131026763574
B0FFGGDEMV,东土城路与砖角楼胡同交叉口,地名地址信息;交通地名;路口名,190302,[],116.42610066216446,39.95292185068201
B000A9O19Q,砖角楼北里甲5号楼,地名地址信息;门牌信息;楼栋号,190403,[],116.4244496372472,39.954597662624764
B000A9EG5N,民旺园1号楼,地名地址信息;门牌信息;楼栋号,190403,[],116.42006119402406,39.95217268932533
B0FFHQ2VIU,和平里七区社区17号楼,地名地址信息;门牌信息;楼栋号,190403,[],116.41846298584743,39.960123739800345
B000A9NNGN,民旺园6号楼,地名地址信息;门牌信息;楼栋号,190403,[],116.42305668242707,39.95222005664386
B000A9O2GV,砖角楼南里1号楼,地名地址信息;门牌信息;楼栋号,190403,[],116.42580818267513,39.95269147529662
B000A9O3AH,砖角楼北里9号楼,地名地址信息;门牌信息;楼栋号,190403,[],116.42304037675379,39.95441895082198
B0FFF51GV5,民旺园新4号楼,地名地址信息;门牌信息;楼栋号,190403,[],116.42129394624085,39.95246801684685
B000A9NRV1,和平里六区2号楼,地名地址信息;门牌信息;楼栋号,190403,[],116.41779571535453,39.955384276231506
B000A9NNHJ,民旺园2号楼,地名地址信息;门牌信息;楼栋号,190403,[],116.42040368663343,39.95214305586045
B000A9NRUY,和平里六区18号楼,地名地址信息;门牌信息;楼栋号,190403,[],116.41864008634589,39.95334118243232
B000A9O53J,砖角楼南里19号楼,地名地址信息;门牌信息;楼栋号,190403,[],116.42340924768179,39.95218948006061
B000A9DPNZ,砖角楼南里5号楼,地名地址信息;门牌信息;楼栋号,190403,[],116.42438792702436,39.95151670664862
B0FFG4VYLI,民旺园4号楼,地名地址信息;门牌信息;楼栋号,190403,[],116.42195197453552,39.9521647707721
B0FFF51GV0,民旺园甲7号楼,地名地址信息;门牌信息;楼栋号,190403,[],116.4225788065663,39.953208454104534
B0FFF51GH1,和平里2区2号楼,地名地址信息;门牌信息;楼栋号,190403,[],116.41764434524434,39.95675907744233
B0FFF51CGH,和平里六区3号楼,地名地址信息;门牌信息;楼栋号,190403,[],116.41828936019017,39.95538175532965
B0FFF51CET,和平里六区20号楼,地名地址信息;门牌信息;楼栋号,190403,[],116.41869707036336,39.95406621079239
B0FFF51CE8,和平里7区1号楼,地名地址信息;门牌信息;楼栋号,190403,[],116.41854329218884,39.958558880957675
B0FFF51A9U,砖角楼北里3号楼,地名地址信息;门牌信息;楼栋号,190403,[],116.42301219116462,39.955526873777295
B0FFF51A9P,民旺园3号楼,地名地址信息;门牌信息;楼栋号,190403,[],116.4211958421247,39.95214292062337
B0FFF518WF,和平里7区35号楼,地名地址信息;门牌信息;楼栋号,190403,[],116.41772495769358,39.96061300270524
B000A9QIW1,和平里东街12号院2号楼,地名地址信息;门牌信息;楼栋号,190403,[],116.41963213155054,39.9557780971121
B000A8ZH7F,砖角楼南里15号楼,地名地址信息;门牌信息;楼栋号,190403,[],116.42482846654292,39.95304820013819
B0FFG4VWDN,和平里公寓8号楼,地名地址信息;门牌信息;楼栋号,190403,[],116.42149202875059,39.954140172487854
B0FFIRWDBA,和平里街道,地名地址信息;普通地名;街道级地名,190107,[],116.41766559872497,39.954984167505444
B0FFG4LDWV,交林夹道1号楼,地名地址信息;门牌信息;楼栋号,190403,[],116.42219785915745,39.956023901186285
B0FFHWW72J,交林大道3号楼,地名地址信息;门牌信息;楼栋号,190403,[],116.42258749651064,39.95575036436028
B0FFG4LD79,和平里七区社区2号楼,地名地址信息;门牌信息;楼栋号,190403,[],116.41760610121797,39.95828898085029
B0FFG4L8QL,民旺园16号楼,地名地址信息;门牌信息;楼栋号,190403,[],116.42108063705868,39.95241678238596
B000A9NR7S,和平里7区38号楼,地名地址信息;门牌信息;楼栋号,190403,[],116.41747072014529,39.9599217882318
B0FFGYBF0V,和平里14区21号楼,地名地址信息;门牌信息;楼栋号,190403,[],116.42121091320664,39.95961264362981
B0FFHI6V3J,和平街十四区甲19号楼,地名地址信息;门牌信息;楼栋号,190403,[],116.42055481671511,39.96068288285897
B0FFG4LE10,民旺园15号楼,地名地址信息;门牌信息;楼栋号,190403,[],116.42121479545477,39.95272991857132
B0FFGKP1M7,和平街14区14号楼,地名地址信息;门牌信息;楼栋号,190403,[],116.42310792311979,39.95882285812612
B0FFG4VBTT,和平里东街12号院7号楼,地名地址信息;门牌信息;楼栋号,190403,[],116.4217743988285,39.95457047410856
B0FFIVN7OC,和平里东街9号院4号楼,地名地址信息;门牌信息;楼栋号,190403,[],116.41846598111746,39.95234404877967
B0FFICYSTL,民旺园33号楼,地名地址信息;门牌信息;楼栋号,190403,[],116.42136719233325,39.95139114084897
B0FFICYQXV,和平里2区16号楼,地名地址信息;门牌信息;楼栋号,190403,[],116.41767846297286,39.95617913278272
B000A9NR56,和平里2区20号楼,地名地址信息;门牌信息;楼栋号,190403,[],116.41749911919402,39.95707492712614
B0FFG4L7EJ,和平里东街20号院1号楼,地名地址信息;门牌信息;楼栋号,190403,[],116.42044261436516,39.95315005812015
B0FFHLLB9H,民旺园丙7号楼,地名地址信息;门牌信息;楼栋号,190403,[],116.42214308041045,39.953625932363394
B000A9NXD2,东土城路7号院1号楼,地名地址信息;门牌信息;楼栋号,190403,[],116.42577801981376,39.9535614016762
B0FFGXC2JE,和平里七区甲16号楼,地名地址信息;门牌信息;楼栋号,190403,[],116.41827893996381,39.958571619636196
B0FFH14QSI,和平里七区社区18号楼,地名地址信息;门牌信息;楼栋号,190403,[],116.41748477093135,39.959663811672606
B0FFH13C5Z,和平里2区18号楼,地名地址信息;门牌信息;楼栋号,190403,[],116.41735597712534,39.956761804444334
B0FFH12NY0,和平里7区19楼,地名地址信息;门牌信息;楼栋号,190403,[],116.41751975309337,39.9601538254855
B0FFGSDVDL,交林夹道5号楼,地名地址信息;门牌信息;楼栋号,190403,[],116.42127346418188,39.95601485462625
B0FFGSDRTF,和平里7区36号楼,地名地址信息;门牌信息;楼栋号,190403,[],116.41851399637004,39.960573772581036
B0FFGSDJ7Z,交林夹道4号楼,地名地址信息;门牌信息;楼栋号,190403,[],116.42222200624944,39.95515996299093
B000A9NXF6,东土城路1号院3号楼,地名地址信息;门牌信息;楼栋号,190403,[],116.42510044116325,39.95685239663794
B000A9NRMT,和平里2区27号楼,地名地址信息;门牌信息;楼栋号,190403,[],116.41855658961204,39.956363980499546
B0FFG4VTKV,和平里北街丙14号楼,地名地址信息;门牌信息;楼栋号,190403,[],116.42082760288278,39.95762229979606
B0FFG4VZIR,和平里2区1号楼,地名地址信息;门牌信息;楼栋号,190403,[],116.41800585971866,39.95639143921513
B0FFG4VTDS,交通部宿舍4号楼,地名地址信息;门牌信息;楼栋号,190403,[],116.42002458723935,39.95652947928226
B0FFG4VS33,民旺园31号楼,地名地址信息;门牌信息;楼栋号,190403,[],116.4196276605306,39.951576257675775
B0FFG4V77Q,和平里公寓5号楼,地名地址信息;门牌信息;楼栋号,190403,[],116.42134364173153,39.95543995539791
B0FFG4UPFF,交林夹道6号楼,地名地址信息;门牌信息;楼栋号,190403,[],116.42260269164379,39.954403435076394
B000A9E8SV,砖角楼北里8号楼,地名地址信息;门牌信息;楼栋号,190403,[],116.42524200408556,39.954316677616646
B000A9E8SM,砖角楼北里2号楼,地名地址信息;门牌信息;楼栋号,190403,[],116.42398480903668,39.955094066716704
B0FFF9EMPM,和平里六区8-1号楼,地名地址信息;门牌信息;楼栋号,190403,[],116.4185047122254,39.95485898822337
B0FFF84ALI,和平里七区33-5号,地名地址信息;门牌信息;楼栋号,190403,[],116.41719228469798,39.9605725011892
B0FFG4LGJF,和平里7区15号楼,地名地址信息;门牌信息;楼栋号,190403,[],116.4174668614246,39.9587748297384
B0FFG4LGIL,和平里南街5区18号楼,地名地址信息;门牌信息;楼栋号,190403,[],116.41745558110796,39.95301504563853
B0FFG4LFOL,和平里6区16号楼,地名地址信息;门牌信息;楼栋号,190403,[],116.41724825129718,39.95354183008415
B000A9E8SE,砖角楼北里甲3号楼,地名地址信息;门牌信息;楼栋号,190403,[],116.42362919634564,39.955371621122396
B0FFIY0PZK,和平里中街3号院14号楼,地名地址信息;门牌信息;楼栋号,190403,[],116.41721084019267,39.956397682814085
B0FFICYYIT,和平里2区15号楼,地名地址信息;门牌信息;楼栋号,190403,[],116.41734804111587,39.9561808198383
B0FFICYUV3,和平里2区17号楼,地名地址信息;门牌信息;楼栋号,190403,[],116.4174281099669,39.95643788510098
B0FFICTNG7,和平里中街3号院26号楼,地名地址信息;门牌信息;楼栋号,190403,[],116.41863463415164,39.956833039689215
B0FFF55GJ8,和平街十区26号楼,地名地址信息;门牌信息;楼栋号,190403,[],116.41778596065274,39.96120703772163
B000A9NQLQ,和平里2区19号楼,地名地址信息;门牌信息;楼栋号,190403,[],116.4172928569793,39.957077732776
B0FFHLK828,和平里东街10号院1号楼,地名地址信息;门牌信息;楼栋号,190403,[],116.41944975135846,39.95677386893089
B000A9NXF4,东土城路1号院2号楼,地名地址信息;门牌信息;楼栋号,190403,[],116.42462858417966,39.9573537786896
B000A9UXNA,和平里东街9号院2号楼,地名地址信息;门牌信息;楼栋号,190403,[],116.41780723340074,39.951435442586984
B000A9NPH0,民旺园11号楼,地名地址信息;门牌信息;楼栋号,190403,[],116.4230898042306,39.951675117502745
B000A9DPXO,砖角楼南里20号楼,地名地址信息;门牌信息;楼栋号,190403,[],116.42349232621521,39.95261956342877
B000A9E8SY,砖角楼南里21号楼,地名地址信息;门牌信息;楼栋号,190403,[],116.42428161322272,39.9526025316003
B000A9NQE4,和平里2区21号楼,地名地址信息;门牌信息;楼栋号,190403,[],116.41771343378382,39.95676114328847
B0FFH79EDD,和平里北街13区19号楼,地名地址信息;门牌信息;楼栋号,190403,[],116.42359162841397,39.95935741881774
B000A9NXK8,和平里2区22号楼,地名地址信息;门牌信息;楼栋号,190403,[],116.41781260375885,39.95643125126559
B0FFGYBF0U,和平里14区20号楼,地名地址信息;门牌信息;楼栋号,190403,[],116.42086836581439,39.95995125275285
B000A9NQLU,和平里2区23号楼,地名地址信息;门牌信息;楼栋号,190403,[],116.41814194906418,39.95708654411696
B0FFG4VYAM,和平里东街20号院4号楼,地名地址信息;门牌信息;楼栋号,190403,[],116.42064083507113,39.953665252015995
B000A9NRUH,和平里2区24号楼,地名地址信息;门牌信息;楼栋号,190403,[],116.41838426789467,39.95709078144515
B0FFG4LB5A,和平里东街20号院3号楼,地名地址信息;门牌信息;楼栋号,190403,[],116.42198085977489,39.95341175475588
B0FFG4L5GD,和平里东街20号院2号楼,地名地址信息;门牌信息;楼栋号,190403,[],116.42103446464922,39.95323669922609
B0FFFCQ529,和平里东街10号院3号楼,地名地址信息;门牌信息;楼栋号,190403,[],116.42085771004015,39.95712635222308
B0FFG4LG3C,东土城路1号院1号楼,地名地址信息;门牌信息;楼栋号,190403,[],116.42505832178409,39.95723032799532
B0FFIL1V4I,和平里北街5号院6号楼,地名地址信息;门牌信息;楼栋号,190403,[],116.42524830574982,39.95988946665619
B0FFI9PYBE,和平里小区2号楼,地名地址信息;门牌信息;楼栋号,190403,[],116.4270984896887,39.9603348982647
B0FFI9PX87,和平里小区4号楼,地名地址信息;门牌信息;楼栋号,190403,[],116.42653064640315,39.95899218393361
B000A9O3AK,砖角楼南里17号楼,地名地址信息;门牌信息;楼栋号,190403,[],116.4247484373238,39.952223131360675
B0FFHTLQND,砖角楼北里1号楼,地名地址信息;门牌信息;楼栋号,190403,[],116.42379055059726,39.95463984643679
B0FFHXCNTB,和平里14区23号楼,地名地址信息;门牌信息;楼栋号,190403,[],116.42375896317105,39.95885264226881
B0FFF80PZ7,东土城路8号院1号楼,地名地址信息;门牌信息;楼栋号,190403,[],116.42658132125177,39.95439243259448
B000A9NRUV,和平里六区17号楼,地名地址信息;门牌信息;楼栋号,190403,[],116.41817150884714,39.95299773374354
B0FFH9SUML,和平里东街12号院11号楼,地名地址信息;门牌信息;楼栋号,190403,[],116.4196310908658,39.95608608391947
B0FFGE8K2H,东土城路12号院1号楼,地名地址信息;门牌信息;楼栋号,190403,[],116.4269081356285,39.952567944816565
B0FFGDIGQP,和平里北街5号院5号楼,地名地址信息;门牌信息;楼栋号,190403,[],116.42421259907196,39.959678167805784
B0FFFV9EKP,和平街十三区1号楼,地名地址信息;门牌信息;楼栋号,190403,[],116.42435264793558,39.961109285544026
B0FFGSDP0E,西坝河南路1号院3号楼,地名地址信息;门牌信息;楼栋号,190403,[],116.42718879039232,39.959251064146635
B0FFGSDKKK,和平街14区12号楼,地名地址信息;门牌信息;楼栋号,190403,[],116.42179681046878,39.95945730738527
B0FFGYBF0T,和平里14区16号楼,地名地址信息;门牌信息;楼栋号,190403,[],116.42201103028745,39.960287518898994
B000A9NNHL,民旺园5号楼,地名地址信息;门牌信息;楼栋号,190403,[],116.42033852131006,39.952706963772854
B0FFGBC3SZ,光熙家园8号楼,地名地址信息;门牌信息;楼栋号,190403,[],116.42663661349185,39.96072825776439
B0FFG96FU6,砖角楼南里16号楼,地名地址信息;门牌信息;楼栋号,190403,[],116.42519313689968,39.952619681603345
B0FFG4VSP5,平和里北街5号院1号楼,地名地址信息;门牌信息;楼栋号,190403,[],116.4247215896514,39.958531849535525
B000A9NXI7,和平街14区8号楼,地名地址信息;门牌信息;楼栋号,190403,[],116.42039287179149,39.95841879748679
B0FFG37EQV,柳芳北街9号院3号楼,地名地址信息;门牌信息;楼栋号,190403,[],116.42674895876848,39.959585453920624
B0FFG4LPGO,和平街十四区甲16号楼,地名地址信息;门牌信息;楼栋号,190403,[],116.421831719695,39.96058530264373
B0FFG4LDMO,和平街十四区甲15号楼,地名地址信息;门牌信息;楼栋号,190403,[],116.42241779435847,39.95919603101619
B0FFG4L1HZ,煤炭科技苑小区34号楼,地名地址信息;门牌信息;楼栋号,190403,[],116.4201131244036,39.961148391344814
B0FFG4L0F7,和平街13区32号楼,地名地址信息;门牌信息;楼栋号,190403,[],116.42126079459413,39.96112463950886
B0FFG4VS40,和平街十四区13号楼,地名地址信息;门牌信息;楼栋号,190403,[],116.42321511718845,39.95863599351796
B0FFG4VRQN,东土城路9号院1号楼,地名地址信息;门牌信息;楼栋号,190403,[],116.4254126407535,39.9516000040911
B0FFG4VP98,和平街十四区18号楼,地名地址信息;门牌信息;楼栋号,190403,[],116.41923798596677,39.96049050503647
B0FFG4VM0Q,和平里北街5号院4号楼,地名地址信息;门牌信息;楼栋号,190403,[],116.4250389444409,39.959938196794845
B0FFG4VLAI,煤科院小区29号楼,地名地址信息;门牌信息;楼栋号,190403,[],116.4221481327214,39.961129643073185
B0FFG4UZPQ,和平街14区22号楼,地名地址信息;门牌信息;楼栋号,190403,[],116.42357672583476,39.9584034382667
B0FFF9FPEF,西坝河南路甲1号院A座,地名地址信息;门牌信息;楼栋号,190403,[],116.42667707577606,39.95765943283995
B0FFFCPP0D,光熙家园9号楼,地名地址信息;门牌信息;楼栋号,190403,[],116.42635115940504,39.96032889171818
B000A9NR5A,和平里二区甲25号楼,地名地址信息;门牌信息;楼栋号,190403,[],116.4182411161815,39.95679765235907
B0FFIVLRJE,和平街十四区社区1号楼,地名地址信息;门牌信息;楼栋号,190403,[],116.41959175071425,39.95832595493058
B000A9NXI5,和平街14区6号楼,地名地址信息;门牌信息;楼栋号,190403,[],116.4192240518391,39.95982351704672
B0FFG4VTD6,和平街十四区东区3号楼,地名地址信息;门牌信息;楼栋号,190403,[],116.42483769252274,39.95925296795501
B0HGNPL4EF,和平里东街丙14号楼,地名地址信息;门牌信息;楼栋号,190403,[],116.4210479388194,39.95752154562516
B0HBNPWFDE,和平里六区17-20号楼,地名地址信息;门牌信息;楼栋号,190403,[],116.41840874040744,39.953636941395054
B0G0PNAENK,交林夹道-甲3号楼,地名地址信息;门牌信息;楼栋号,190403,[],116.42238217787646,39.955751125105465
B0G09HPXXR,和平街14区19号楼,地名地址信息;门牌信息;楼栋号,190403,[],116.41923798596677,39.96049050503647
B0G3M5YH9N,和平里公寓7号楼,地名地址信息;门牌信息;楼栋号,190403,[],116.42134475824709,39.95453799209834
B0FFK5WYYK,和平里七区社区35号楼,地名地址信息;门牌信息;楼栋号,190403,[],116.41810545419818,39.96059437051274
B0G1TUX9PW,和平里七区社区19号楼,地名地址信息;门牌信息;楼栋号,190403,[],116.41752876306657,39.96016583354874
B0G1T7WVQO,和平里一区9号楼,地名地址信息;门牌信息;楼栋号,190403,[],116.41744404127023,39.95713587267657
B0FFK5W887,煤科院小区26号楼,地名地址信息;门牌信息;楼栋号,190403,[],116.4232869214767,39.96107198370644
B0FFK7LM7P,远东仪表26号楼,地名地址信息;门牌信息;楼栋号,190403,[],116.42346384943966,39.95600639592004
B0FFJRXDDY,远东仪表15号楼,地名地址信息;门牌信息;楼栋号,190403,[],116.42347182265301,39.95631739332616
B0FFJL970E,和平街十三区甲26号楼,地名地址信息;门牌信息;楼栋号,190403,[],116.42272003571556,39.96099431350072
B0FFF7YRCA,和平里北街甲5号院1号楼,地名地址信息;门牌信息;楼栋号,190403,[],116.42528347110606,39.95906054445081
B000A9O19K,砖角楼北里4号楼,地名地址信息;门牌信息;楼栋号,190403,[],116.42303627327418,39.95518091599645
B0FFF51GWW,和平街13区22号楼,地名地址信息;门牌信息;楼栋号,190403,[],116.42418245989519,39.9603821027574
B0FFG4L6ZY,和平里东街12号院3号楼,地名地址信息;门牌信息;楼栋号,190403,[],116.42068168957285,39.95527323315547
B000A9NKCY,东土城路3号院1号楼,地名地址信息;门牌信息;楼栋号,190403,[],116.4256765240783,39.95608017028841
B0G1TUX24P,和平里七区社区甲16号楼,地名地址信息;门牌信息;楼栋号,190403,[],116.41789043641514,39.958535243360444
B0FFF51C3J,和平街十三区33号楼,地名地址信息;门牌信息;楼栋号,190403,[],116.42053170766407,39.96127683449698
B0FFF51C3F,煤科院小区28号楼,地名地址信息;门牌信息;楼栋号,190403,[],116.42258880122773,39.96122715045596
B000A9NRL7,和平街14区7号楼,地名地址信息;门牌信息;楼栋号,190403,[],116.41922001227935,39.96009050240528
B000A9NK90,东土城路7号院2号楼,地名地址信息;门牌信息;楼栋号,190403,[],116.42547247797614,39.95368499950061
B0G3SAX842,国家石油天然气管网集团A座,地名地址信息;门牌信息;楼栋号,190403,[],116.4255584109525,39.95537104459805
B0FFM0SY29,和平街十四区社区-甲19号楼,地名地址信息;门牌信息;楼栋号,190403,[],116.42099947601193,39.96059537129611
B000A9NR7T,和平里14区11号楼,地名地址信息;门牌信息;楼栋号,190403,[],116.420110236232,39.960238424115026
